Location,Latitude,Longitude
Kim,37.2811053,127.0507571
Sri Potti Sriramulu Nellore District,14.2937321,79.1136788
Boothapandi,8.2634687,77.4424016
Ribhoi District,25.8731842,91.2430091
Utai,37.2996219,127.0507571
Golugonda,17.678842,82.4634003
Khajuwala,28.7039875,72.5778077
Falta Industrial Growth Centre,37.2996219,127.0507571
Reasi District,33.0795916,74.4865617
Bhomoraguri Aidc,37.2996219,127.0507571
Kozhikode,11.2558266,75.7407734
Nimapada,20.0561705,85.985258
Amaravathi,37.2811053,127.0507571
Sikanderpur Ballia District,26.0176553,83.8764855
Tenali,16.2398118,80.6093316
Gobra Nawapara,20.9794964,81.8214204
Siligurili,37.2811053,127.0507571
Rampur District,28.7932658,78.8670547
Churhat,24.419817,81.6602181
Madathukulam,10.5597516,77.3556589
Nandgaonpeth Midc,37.2811053,127.0507571
Ayothiapattinam,11.6732508,78.228836
Bishrampur,23.1964829,82.9082798
Jalandhar,31.3223787,75.5033791
Vadakkummuri,10.433145,76.0995518
Kaniyambadi,12.8079294,79.1191683
Rajgir,25.0112075,85.3890506
Vijayapura,16.8297894,75.647497
Bhandara Midc,37.2811053,127.0507571
Jaggampeta,17.1727949,82.0494175
Kalayat,29.6766237,76.2300323
Athmallik,20.7234833,84.5196245
Roha Midc,37.2811053,127.0507571
Dungarpur,23.8466574,73.6962814
Palamu,24.2182044,83.641302
Chengalam South,9.5994474,76.4450485
Ahraura,25.0159185,83.0132759
Morbi,22.8049628,70.7867549
Arambol,15.6888303,73.6870187
Benipur,26.0550885,86.1368139
Amgaon Bk,21.3691291,80.3746603
Ghiraur,37.2811053,127.0507571
Kishangarh,26.5948845,74.816379
Akividu,16.5833141,81.3603104
Jeeran,37.2811053,127.0507571
Lonavala,18.7573528,73.3416824
Zamania,25.4218073,83.5404721
Pathanamthitta,9.2603232,76.7080209
Safipur,26.739017,80.3305785
Vasco De Gama,37.2811053,127.0507571
Udalguri,26.7401991,92.0595067
Bachhraon,28.9241098,78.2225703
Sangli Miraj Kupwad,16.8354352,74.5466214
Kathuwas,28.1371289,76.3414836
Ode,37.2811053,127.0507571
Dharmavaram,14.4168555,77.681668
Jeypur,18.8589914,82.4810574
Feroke,11.1758247,75.8259974
Rajasunakhala,20.1686438,85.3290146
Burdwano,37.2811053,127.0507571
North Guwahati,26.1923312,91.712937
Warangal Urban,17.9624406,78.6265567
Bhubaneswara,20.3008702,85.7504127
Pratapgarh City,25.899769,81.9269554
Kodagu District,12.378391,75.2192473
Mallur,11.5438383,78.1357311
Tumsar,21.3805942,79.7280861
Pauni,20.7895773,79.6159027
Chennai Metropolitan Area,12.8886068,79.2599395
Harindanga,22.0359033,88.3193922
Purwa,37.2811053,127.0507571
Jainagar,26.5876995,86.1169604
Daitari,37.2811053,127.0507571
Ratia,29.6729166,75.542882
Kariyangala,12.9306494,74.9504454
Lakhi Nepali,27.8398747,95.2378703
Kallelibhagom,9.0523897,76.536556
Kunigal,13.0240419,77.0110164
Ambernath,19.2001319,73.1671051
Jaypur,26.8851417,75.6504723
Kolazhy,10.5713736,76.2016683
Lonand,18.0409495,74.174044
Kalyan Dombivali,19.2093305,73.0645624
New India,37.2811053,127.0507571
Vellode,11.2485095,77.5935509
Palani,10.4528898,77.4988566
Mandalgarh,25.1907415,75.0532181
Kharkhoda,37.2811053,127.0507571
Nandej,22.9017449,72.6846572
Dibrugrah,27.4703275,94.8825741
Vijayapuri,16.5868893,79.3070503
Kapasan,-7.2418149,112.7421402
Hydrabad,37.2811053,127.0507571
Dowlaiswaram,16.9516013,81.7794119
Modinagar,28.8357414,77.5368406
Dhoraji,21.728741,70.4252595
Kolkatta,22.6757521,88.0495361
Tasawade Midc,37.2811053,127.0507571
Chirimiri,23.2026251,82.2889513
Pernem,15.7222127,73.7776108
Azam Garh,26.056835,83.1195258
Moradabad,28.8431354,78.697512
Kullu,31.9545843,77.0937828
Bhagal,30.066565,76.4111194
Kannauj,27.0437578,79.8982642
Kizhuparamba,11.2525866,75.9881546
Ezhupunna,9.8194217,76.2902747
Maurawan,26.4337296,80.8563562
Bhiwndi,19.2817659,72.9917832
Andal,37.2811053,127.0507571
Kochpara,26.102739,91.4985004
Gsfc Reliance Complex,37.2811053,127.0507571
Prithvipur,25.2191408,78.7152304
Noamundi,22.1568877,85.4985291
Panihati,22.6974991,88.3838953
Kalmeshwar,21.2344623,78.8900536
Cheppad,9.2378896,76.4653625
Unokoti District,37.2811053,127.0507571
Kathipudi,17.2421576,82.3260283
Chamarajanagara,11.9522596,76.5299268
Bandh Dih,23.658766,85.9804554
Manmad,20.2533122,74.4220838
Kosi Kalan,27.7884014,77.4221562
Soro,37.2811053,127.0507571
Ichalkrnaji,37.2811053,127.0507571
Deesa,24.2538772,72.1567831
Ranapurgada,20.0602614,85.3316708
Sanaswadi,18.6669857,74.0813201
Kota,25.1733863,75.7769083
Badli,37.2811053,127.0507571
Usehat,37.2811053,127.0507571
Bishunipur,37.2996219,127.0507571
Ikauna,27.5289951,81.9603582
Tikaria Industrial Area,37.2811053,127.0507571
Dhanpuri,23.2313648,81.4598001
Coochbeihar,37.2811053,127.0507571
Sukma,37.2811053,127.0507571
Gadwal,16.2321284,77.7694684
Ram Garh,37.2811053,127.0507571
Mohammadabad Ghazipur,25.6171098,83.7342093
Chennaichennai,37.2811053,127.0507571
Miryalaguda,16.8663562,79.5327324
Gadhinglaj,16.2324727,74.3164214
Kot Ise Khan,30.9443981,75.1179563
Dharmapuri,12.1269508,78.1164646
Begumpet,17.4443403,78.4502663
Siddapur,15.2879821,74.7609866
Cheranmadevi,8.6811747,77.5490568
Pragpur,37.2811053,127.0507571
Kallakudi,10.9770015,78.943128
Sant Ravidas Nagar Bhadohi,25.3898937,82.5333303
Paderu,18.0785073,82.649803
Perinthalmanna,10.973895,76.1952342
Tirukalukundram,12.6109785,80.0267308
Gajapathinagaram,18.2829101,83.3177625
District Ambala,30.3067615,76.5998653
Savli,22.5603551,73.2155138
Vaddakkankulam,37.2811053,127.0507571
Anpara,24.2051915,82.7603347
Bharanikkavu,9.1744133,76.5256271
Cart Road,26.8263056,88.2994555
Chandpur South Twenty Four Parganas District,22.4495198,88.4402452
Harraiya,26.793687,82.4627244
Neemkathana,27.734557,75.7380488
Charthaval,29.5450847,77.5736044
Krishna,37.2811053,127.0507571
District Nagaur,27.206969,73.6895026
Mihona,26.2854499,78.9719903
Naidu Peta,13.9027039,79.8740993
Pudukkottai District,10.2956779,78.2847036
Rabkavi Banhatti,16.4835273,75.1030217
Kaithal,29.791841,76.3375544
Kotputli,27.7047241,76.1566251
Jalpaiguri,26.5324618,88.6116862
Niz Hajo,26.3199798,91.5573476
"Kharar,",30.7467606,76.6181332
Mamun,37.2811053,127.0507571
Bijnor,29.3786329,78.1042093
Ranjangaon,18.7566476,74.2337178
Chikiti,19.2016317,84.5920656
Srivaikuntam,8.6310022,77.904246
Ntpc Barh Township,37.2811053,127.0507571
Mandya,12.5224561,76.8616998
Gaya,24.7833122,84.9470613
Anthiyur,11.5791226,77.5721883
Dhakauli,30.654329,76.8259944
Changsari,26.2587507,91.6770457
Champahati,22.4011678,88.4749387
Narasapur,16.4328831,81.6725993
Himmatnagar,23.6051169,72.933039
Dharamkot,32.2474155,76.323765
Thangadh,22.5719889,71.1263441
Amrapur,37.2811053,127.0507571
Thiruvananthapuram District,8.5779542,76.6974383
Perumbaikad,9.6184277,76.4998846
Bisauli,28.3052092,78.9186143
Shyamdhan,37.2811053,127.0507571
Patan,37.2811053,127.0507571
Dattapur Dhamangaon,20.7981591,78.1269304
Puranattukara,10.5453806,76.1419408
Nannambra,11.0069044,75.8942153
Sapatgram,26.3267397,90.1099552
Pundri,29.7602028,76.5393447
Pandual,37.2811053,127.0507571
Bara Suzapur,37.2811053,127.0507571
Raja Ka Rampur,27.5500957,79.1121705
Kakkalapalle,37.2811053,127.0507571
Perinad,8.9438173,76.5930772
Jatani,20.1612165,85.6782954
Kakkodi,11.3188592,75.7898712
Khairabad District Sitapur,27.5314662,80.7329678
Kalol,23.2280743,72.4671327
Sikandrabad,28.4493088,77.6788605
Satna,24.5793684,80.7330082
Murbad Midc,19.2629233,73.3825188
Mahua Dabra Haripura,29.2772589,78.7728054
Ashwaraopet,17.2442801,81.1049247
Sarsawan,30.0182857,77.3817748
Cheepurupalli,18.3096763,83.5573144
Nani Daman,20.4152449,72.8321611
Kathaura,26.5095889,81.5119654
Thiruthuraipoondi,10.5318285,79.6301528
Gochar,30.2861219,79.1386412
Eranapuram,11.5627395,77.9664608
Dharamasala,32.2167773,76.3016556
Kodumur,15.6841032,77.7616925
Palia Kalan,28.433245,80.5611519
Komalapuram,9.5390496,76.3250361
Pandaul,26.2564575,86.0601834
Chittoir,13.306833,77.9374029
Pethanaickenpalayam,11.6497563,78.5000181
Deola,37.2811053,127.0507571
Kadambathur,13.1006185,79.8519587
Vazhapadi,11.6558923,78.3856914
Sathupalli,17.2075271,80.8086003
Ballepalle,17.2733814,80.1754492
Kandhamal,20.1268692,83.4826608
Mendu,37.2811053,127.0507571
Ranipur,37.2811053,127.0507571
Sarangarh,21.5860887,83.0590719
Kallam,37.2811053,127.0507571
Surgana,20.5587162,73.6330935
Anwari,37.2811053,127.0507571
Konark,19.8906109,86.0736106
Hoshiarpur District,31.6027116,75.3518905
Pudussery,10.672638,76.7481708
Nagri Kalan,23.8198741,86.3262353
Kanpur City,26.4471054,80.1982971
Fatehganj Purvi,37.2811053,127.0507571
Lanja,16.8569452,73.501505
Chinchani,19.8844258,72.6691745
Veerapandianpattinam,8.5282891,78.0995139
Deoband,29.6907935,77.6638045
Jangipur,24.4637473,88.0614766
Arumanai,8.3687026,77.2323417
Makhu,31.1075024,74.9725577
Gagret,31.6604401,76.0529099
Baragaon Jhansi,25.4767149,78.6972998
Kutch,23.6962239,67.678753
Walwa,-35.9951853,147.5989802
Khetia,21.6715168,74.5776951
Sri Ganganagar,29.9090984,73.8440325
Nalkheda,23.8406681,76.2274672
Basavakalyan,17.8678812,76.9354948
Jhujhunu,37.2811053,127.0507571
Kalaigaon Town Part,26.5715623,91.966842
Arumuganeri,8.5688029,78.0753575
Berasia,23.6284831,77.4239372
Gourdanda,37.2811053,127.0507571
Cherukunnu,12.0058771,75.2559197
Loharu,28.4269462,75.7950484
Kurthi Jafarpur,37.2811053,127.0507571
Santipur,23.2508862,88.4135828
Kila Ambur,37.2811053,127.0507571
Katra,32.9847528,74.9130891
Padrauna,26.8993142,83.9591824
Itarsi,22.6125833,77.7193283
Gharsana,29.0256459,73.06303
Purna,19.1817194,77.0126289
Sevur,11.2618305,77.2068493
Puthunagaram,10.6797329,76.6652798
Ambad,18.0739043,75.3266704
Rehti,22.7379025,77.4271666
Bhavani,37.2811053,127.0507571
Vakkom,8.6900362,76.7477308
Shirdi,19.7605597,74.4415133
Vasai (west),19.3693312,72.7711074
Piplya Mandi,24.195391,74.9947604
Ganpatipule,17.1530909,73.2607196
Taraori,29.7955846,76.8949836
Terkukallikulam,37.2811053,127.0507571
Hubblli,37.2811053,127.0507571
Durganagar Pt Iv,37.2811053,127.0507571
Makhdumpur,25.0665514,84.9687175
Warangal Rural,37.2811053,127.0507571
Wcl Umred,37.2811053,127.0507571
Manakunnam,9.8789774,76.3304359
Sewarhi,26.7220635,84.2102666
Bidadi Industrial Area,37.2811053,127.0507571
District Vaishali,25.7527311,85.0813196
Raymond Chhindwara,37.2811053,127.0507571
Itahar,25.4485897,88.1644678
Hydrebad,17.4121531,78.1278513
Ranir Bazar,23.8342269,91.3619507
Murliganj,25.8992534,86.9852614
Biaora,23.9217204,76.8907355
Thikkody,11.4940471,75.6141849
North Goa,15.5344083,73.6993852
Dabhoi,22.1327589,73.3989278
Maralia,35.3038788,23.7905672
Sonbhadra District,24.3842092,82.4763423
Birodhi,37.2811053,127.0507571
Sulya,12.5567677,75.371752
Jogipet,17.8357647,78.0609405
Choppadandi,18.5860764,79.1562805
Suryapet District,37.2811053,127.0507571
Buxwaha,24.2502509,79.275198
Narsapuram,17.1714319,81.8537664
Bhojpur,27.1641742,86.9863534
Unguturu,16.8225341,81.4148498
Lalpur,24.1834537,88.9443469
Chhatari,28.1041677,78.1417822
Chhapra,25.7804743,84.6759843
Kudlu,37.2811053,127.0507571
Mandi Gobindgarh,30.6672014,76.2603087
Ambajogai,18.7292767,76.3511155
Chengam,12.3097725,78.7846327
Masat Industrial Area,37.2811053,127.0507571
Bahraich,27.5743245,81.5673074
Chennai.,13.0474878,80.0689252
Vaniyamkulam,37.2811053,127.0507571
Chennai 19,37.2811053,127.0507571
Majuli.,27.0072105,93.9144835
Bharatganj,25.1149741,82.2698896
Gaura Barhaj,26.2832553,83.7061213
Sidcul Haridwar,37.2811053,127.0507571
Tiptur,13.2651861,76.4408056
Lidhora Khas,25.0664909,78.8548054
Ramkola,26.8914239,83.8353654
Barpeta,26.3227265,90.9595122
Bramhapuri,20.6114513,79.8387816
Virdhunagar,9.5734396,77.9231708
Digvijaygram,22.4335398,69.8240902
Rohtas District,24.9373245,83.4225004
Virajpete,12.2043949,75.7872039
Kakoshi,23.9986187,72.284653
Chandpala Anantapathpur,37.2811053,127.0507571
Dighawani,22.2109991,78.8005454
Eramala,11.6766492,75.5757691
Oragadam Industrial Area,37.2811053,127.0507571
Nakodar,31.1256528,75.4636015
Changanassery,9.434453,76.5022946
Bakhri,25.5997042,86.2446444
Dalurband,23.7137713,87.2444108
Chhachhrauli,30.2415178,77.3466748
Manesar,28.3503635,76.934391
Kolkata.,22.6757521,88.0495361
Kakrala,27.8941436,79.1841316
Krishnapuram,37.2811053,127.0507571
Vettaikaranpudur,10.5633456,76.9079708
Unchahara,37.2811053,127.0507571
Kandla,23.0110911,70.1484404
Thiruverumbur,10.7846531,78.7602009
Tutucorin,8.7766073,78.0759769
Madhugiri,13.6621255,77.2030306
Sringeri,13.4239858,75.2405815
Kagal,16.5892847,74.2810528
Kanor,37.2811053,127.0507571
Mysore City,12.3106368,76.5656493
Uravakonda,14.9447121,77.2376574
Shornur 1,37.2811053,127.0507571
Kushinagar District,26.9258432,83.4144266
Dhrol,22.5625277,70.4052545
Sangareddy District,37.2811053,127.0507571
Tendukheda Narsimhapur District,22.766089,78.7941553
Hubuli,37.2811053,127.0507571
Pandhurna Industrial Area,37.2811053,127.0507571
Rathian,37.2811053,127.0507571
Padarathpur,28.3094448,79.4813552
Raigarh,21.8949896,83.3600567
Jaswant Nagar,26.8826108,78.8847969
Attingal,8.6932866,76.7983387
Narasimaharajapura,37.2811053,127.0507571
Kaipamangalam,10.3356494,76.1296964
Kheta Sarai,25.9677572,82.665508
Sangod,24.9242775,76.2663351
Chomu,27.1672396,75.6796351
Bhind District,26.3499047,78.1169356
Bhawanipatna,19.9105022,83.128635
Chikodi,16.4290229,74.5642947
Kushalanagara,12.4555169,75.9395138
Nyoria Husainpur,37.2811053,127.0507571
Sahpau,27.4369547,78.130753
Lanka,7.8517315,78.4616949
Rameswaram,9.2867184,79.3028783
Domariyaganj,27.2105036,82.6340136
Marehra,37.2811053,127.0507571
"Boisar,",19.7976726,72.7105417
Kyathampalle,37.2811053,127.0507571
Pawai,37.2811053,127.0507571
Vadakkumthala,9.0365362,76.5378856
Poali,22.3769741,88.1273454
Gorakhpura,37.2811053,127.0507571
Kollancode,8.2883737,77.1023619
Kochinda,21.7443912,84.3378566
Mangalam,37.2811053,127.0507571
Rapar,23.5699655,70.6271855
Kolar District,13.1789399,77.653308
Anantapurnantapur,37.2811053,127.0507571
Cortalim,15.4011619,73.8919464
Patran,37.2811053,127.0507571
Narsinghgarh,23.7114549,77.075529
Seloo Wardha District,20.8363019,78.6990434
Moga,37.2811053,127.0507571
Virudhunagar District,9.4928156,77.3179981
Kodavasal,10.8557768,79.4726507
Mandvi Kachchh District,22.8399868,69.3278
Gummidipoondi,13.4076835,80.0782177
Uthukuli,37.2811053,127.0507571
Sheohar,26.514282,85.2856637
Baldeo,37.2811053,127.0507571
Ezhome,12.0358168,75.2684166
Namagiripettai,11.4580486,78.2519887
Kokapur,22.7528948,88.4344253
Sivakasi,9.4541803,77.7576033
Palaganangudy,37.2811053,127.0507571
Tohana,29.7161939,75.8676363
Maduranthakam,12.5056313,79.8686741
Zirapur,24.0180862,76.367576
Ambala District,30.3067615,76.5998653
Delhi,28.6466773,76.813073
Chincholi Midc,37.2811053,127.0507571
Banda,37.2811053,127.0507571
Madambakkam,12.8323456,80.0644975
Khandwa East Nimar District,21.8302739,76.3173954
Bilandapur,22.23571,88.3673326
Ghoghla,20.730486,70.9852587
Proddatur,14.7501038,78.5110895
Manor,37.2811053,127.0507571
Narikombu,12.8782509,75.0427607
Kusmi,37.2811053,127.0507571
Kodamthuruth,9.7980605,76.2685462
Kankavli,16.2703535,73.6744432
Alandi,18.6768049,73.8759223
Bhatni Bazar,26.377549,83.9175353
Shivpur Charcha,37.2811053,127.0507571
Nanded Waghala,19.1385467,77.2410495
Kalamb Yavatmal District,20.4418134,78.3149672
Kharsia,21.9836698,83.0866207
Tadepalli,16.4777525,80.5699855
Laskarpara,26.4805539,89.8006479
Maniyat,12.176782,75.1581075
Zamin Uthukuli,10.6511669,76.9713937
Jirapur,24.0180862,76.367576
Jaswantnagar,26.8826108,78.8847969
Bishnupur Birbhum District,24.027584,87.5102404
Lunawada,23.1300096,73.5933604
Thikkanamcode,8.2205587,77.2680259
Srinagar,34.106639,74.6666703
Pusad Midc,37.2811053,127.0507571
Manpur,24.8022968,85.0083767
Panagar,23.2883123,79.9870026
Muragachha,22.6931698,88.4101652
Bissam Cuttack,19.5072342,83.4922153
Hoovina Hadagalli,15.0173645,75.9170506
Raasi Cement Factory Wazirabad,37.2811053,127.0507571
Vellore District,12.7281678,78.5356711
Kharijapikon,26.0226448,90.6373702
Jamkhandi,16.5047611,75.2808979
Pandare Midc,37.2811053,127.0507571
Kalaburgi,17.338993,76.7698997
Valsad,20.6066896,72.8599522
Raman,37.2811053,127.0507571
Ranga Reddy District,17.2738332,76.9839376
Andipalayam,11.0877274,77.2986448
Siruguppa,15.629835,76.8826097
Dehu Road,18.6860033,73.7129824
Vittal,37.2811053,127.0507571
Meenad,8.8509048,76.6870746
Porayar,11.0186697,79.8264808
Loha,37.2811053,127.0507571
Mandrem,15.6669404,73.702715
Murgud,16.3960511,74.183979
Machilipatnam,16.1858992,81.0956998
Hatti Gold Mines,16.1977693,76.6343554
Hinjilicut,19.4820467,84.7093604
Dera Gopipur,31.8809725,76.20144
Bahraich District,27.7313501,80.857808
Pattambi,10.805648,76.1725579
Chengannur,9.324536,76.5950488
Hariyawan,27.5192239,80.1661503
Mihijam,23.8482509,86.8395405
Naranammalpuram,8.7608991,77.7331209
Bettiah,26.800863,84.4787291
Lodhikheda,21.5810465,78.8546061
Kakinada,16.9767692,82.1771922
Maheshwaram,17.1332551,78.4103152
Kaushambi,25.3590343,81.3959884
Majra Jhajjar District,28.6695409,76.4447378
Dindigul,10.3640572,77.9389147
Parvathipuram,18.774891,83.4140557
Shirala,16.9865515,74.1121815
Ghaziabad,28.699581,77.254943
Nasirabad,26.3047197,74.6889158
Chandisar,24.2139621,72.2908544
Ariyappampalayam,11.4514055,77.219643
Tiruvannamalai,12.2408546,79.0342331
Punjai Thottakurichi,11.0737616,78.030181
Khargupur,27.3667247,81.9841002
Dachigam,37.2811053,127.0507571
Imphal West,24.7484745,93.607148
Keonjhar,21.6473683,85.5672734
Mohpa,37.2811053,127.0507571
Sardarshahar,28.4404174,74.4761954
Kanhe Industrial Area,37.2811053,127.0507571
Dehri On Sone,24.9129421,84.1415207
Umri,37.2811053,127.0507571
Gvmc Adukkamparai,37.2811053,127.0507571
Mokeri,11.7851555,75.5406715
Bhatinda,30.2087515,74.8886466
Mantralayam,15.9405323,77.4161267
Deori Sagar District,23.3917949,79.01026
Mandvi,22.8399868,69.3278
Paloncha,17.5987616,80.667072
Aminagad,16.0566187,75.9377789
Seohara,29.2049534,78.5711176
Tirupati,13.6276132,79.2847143
Ladwa,29.9937069,77.0294378
Maina Maujpur,37.2811053,127.0507571
Kurumathoor,12.0333176,75.4055641
Nizamabad District,18.6803807,78.0256294
Pillanallur,11.4293626,78.1246483
Chalakudy,10.3081258,76.314039
Payakaraopeta,17.3652769,82.5432039
Eluru,16.7152177,81.0679665
Merta City,26.6506217,74.0124891
Milki,37.2811053,127.0507571
Kaniha,37.2811053,127.0507571
Alipurduar I,37.2811053,127.0507571
Panna District,24.4741014,79.6462274
Birbhum District,24.0612795,86.9951817
Mulanur,10.7933019,77.692201
Kiliyanur,12.1079035,79.7407866
Haveri,14.796396,75.3844498
Doiwala,30.1794091,78.1051109
Manoharpur,37.2811053,127.0507571
Jadcharla,16.7599594,78.1198094
Sohagpur,22.6997122,78.1873583
Amlai,23.199306,81.5482854
Kodaikanal,10.2351493,77.4618524
Chegunta,17.9708213,78.4529186
Marigaon,26.2519681,92.3221921
Nilaiyur,37.2811053,127.0507571
Gandhidham,23.0702616,70.0486539
Puruliya,23.3307423,86.3273686
Kagaznagar,19.3534594,79.466332
Bankura,23.2291572,87.0280263
Nayudupet,13.9027039,79.8740993
Nadia,37.2811053,127.0507571
Vedasandur,10.5302072,77.94007
Anjar,33.7285259,35.9171457
Sidhi,24.3995766,81.8503607
Bilhair,37.2811053,127.0507571
Kauria Ganj,27.8565922,78.3025753
Pinjore,37.2811053,127.0507571
Edavilangu,10.2402586,76.1630309
Parikshitgarh,28.9773957,77.9146955
Mughalsarai,25.2815062,83.1014984
Kannamangalam Alappuzha District,9.2161059,76.4943886
Sambalpur  District,21.5506334,83.7289528
Damua,22.1900512,78.4471839
Tirodi,21.6816592,79.7078803
Mundra,22.8008339,69.6343492
Ner,37.2811053,127.0507571
Dakshin Baguan,22.317775,87.8302377
Wadi,37.2811053,127.0507571
Bambolim,15.4616325,73.8422904
Vaghodia,22.3055642,73.3930063
Robertsganj,24.6841779,83.0311054
Adinad,9.0711082,76.499191
Dongargaon,20.9706956,80.8324669
Karera,37.2811053,127.0507571
Gagret Industrial Area,37.2811053,127.0507571
Ntpc Tanda Colony,37.2811053,127.0507571
Unnao District,26.5661535,79.9892909
Narayangarh,37.2811053,127.0507571
Arrah,25.5576363,84.6350628
Nainital District,29.29927,78.856746
Mahoba,25.2949736,79.8340435
Hodal,27.8925606,77.3393204
Niwas,37.2811053,127.0507571
Gangarampur,25.4040834,88.4956021
Umarga Midc,37.2811053,127.0507571
"Karimpur,",23.9773697,88.6110232
Pethapur,23.2649661,72.6504118
Takhlibilar Pathar,26.513134,90.9907153
Indapur,18.1095028,75.0003423
Barauni Ioc Township,25.4180859,86.119402
Khandala Midc,37.2811053,127.0507571
Yelburga,15.6134191,76.0030974
Parli Vai.j,37.2811053,127.0507571
Bokaro,23.667452,86.0490821
Virar,19.4625693,72.7348968
Jogendranagar,23.8098621,91.2849693
Kesabpur,22.6163541,88.1784853
Koppa,37.2811053,127.0507571
Rudraram,17.5596219,78.1616151
Mirzapur,37.2811053,127.0507571
Murakambattu,13.2478772,79.1082734
Dudhi,37.2811053,127.0507571
Palam,28.5905524,77.0669219
Kendrapara District,20.5498689,86.0903515
Bengaluru,12.9538477,77.3507442
Bhagalpur,25.2403376,86.9217658
Kesinga,20.1817355,83.1976603
Adra,37.2811053,127.0507571
Khaira Bari,26.5229139,90.9680054
Sanjeli,23.052774,73.9653104
Kuttiattoor,11.9778735,75.4497713
Kagal Midc,16.6216083,74.2831967
Paduvilayi,11.8742639,75.4887649
Vadama,37.2811053,127.0507571
Panchsheel Nagar District,28.7159314,77.5915046
Suryapet,17.1441059,79.5895951
Talen,37.2811053,127.0507571
Lawngtlai,22.5289617,92.8568738
Tahliwala Industrial Area,37.2811053,127.0507571
Kasganj,27.804696,78.6262358
Pasur,37.2811053,127.0507571
Bhanupratappur,20.3046323,81.0616028
Chhata,27.7283306,77.4731155
Alok City,37.2811053,127.0507571
Khatu Shyam Ji,27.3649067,75.3962462
Chirmiri,23.2026251,82.2889513
Jhalrapatan,24.5440092,76.1540375
Gangapur City,26.4819559,76.6934747
Sarupathar,26.1890483,93.8499481
Haldwani,29.2135273,79.5094048
Kichha,28.9113724,79.4954823
Baudh,37.2811053,127.0507571
Abdullat,16.6584354,74.5072603
Pashchim Khalna,37.2811053,127.0507571
Rampur Maniharan,29.8039405,77.4402191
Tundla,27.2199064,78.2190118
Zaidpur,26.8301898,81.3193779
Nissing,29.6925985,76.7448908
Malda,25.0963368,87.8329032
Arang,37.2811053,127.0507571
Rasulabad,26.6768468,79.7749201
Gidc Savli,37.2811053,127.0507571
T Kallupatti,9.7206894,77.8497219
District Tonk,26.1194364,75.1521702
Dwarka,22.2467142,68.951884
Wanaparthy District,37.2811053,127.0507571
Bahadurgarh,28.6932915,76.8954546
Manjeri,11.1176143,76.0770345
Ganj Basoda,23.8475809,77.9028204
Nuapada District,20.5512439,82.0582965
Katihar,25.5514921,87.5338513
Ghagra,37.2811053,127.0507571
Sriramnagar,37.2811053,127.0507571
Sidco Industrial Estate Gudimangalam,37.2811053,127.0507571
Pulgoan,20.7204713,78.3012113
Rehla,37.2811053,127.0507571
Khara,37.2811053,127.0507571
Keskal,20.0830575,81.5822624
Ulhas Nagar,19.2240581,73.1319121
Ernad,37.2811053,127.0507571
Delhi 110042,28.7493764,77.0673499
"Rae Bareli,",26.2362505,81.2068467
Sarcarsamakulam,11.1370456,77.0240317
Rahata,19.7124192,74.4737969
Amod,21.9929526,72.851715
Vaishali,37.2811053,127.0507571
Debagarh,21.5366021,84.7106193
Jatari,28.022002,77.6401662
Allahganj,27.5456051,79.6839024
Annur,37.2811053,127.0507571
Sengaon,19.793728,76.880265
Killai,11.4546082,79.7413364
Sunari Kalan,37.2811053,127.0507571
Rania,37.2811053,127.0507571
Arjunda,20.9451678,81.1956168
Beltangadi,12.9910712,75.2603172
Chenn,37.2811053,127.0507571
Dhemaji,27.4773965,94.5191401
Dakor.,22.7540206,73.1396341
Karumathampatti,11.112941,77.1479696
Puducherry,11.9362931,79.7785085
Hingoli,19.7224885,77.1178788
Ntpc Dadri,37.2811053,127.0507571
Changanacherry,9.434453,76.5022946
Purulia,23.3307423,86.3273686
Malihabad,26.9192879,80.6994041
Ochira,9.1272734,76.4890236
Kotla Nihang,30.9520427,76.5335512
Sangrur,30.2422085,75.8077663
Suket,37.2811053,127.0507571
Phulabani,20.4730081,84.1999047
Pennadam,11.403828,79.2220901
District Firozabad,27.1567589,78.3595797
Bagli,37.2811053,127.0507571
Dharapur,26.1436434,91.6032078
Elayavoor,11.8761117,75.3665802
Bijapur,16.8297894,75.647497
Okha Port,37.2811053,127.0507571
Kulithalai,10.9383859,78.4026001
Barmer,37.2811053,127.0507571
Kunjathur,12.7455382,74.8794918
Pulla,37.2811053,127.0507571
Chakdah,23.0631384,88.4863615
Sasara,37.2811053,127.0507571
Kota City,25.1733863,75.7769083
Ratlam District,23.5006425,74.5422808
Bhatpara,22.8476162,88.371588
Chhatarpur District,24.7551722,78.5884245
Siuri,23.9056852,87.4817269
Babai,37.2811053,127.0507571
Kundli Industrial Area,37.2811053,127.0507571
Purba Bardhaman District,37.2811053,127.0507571
Dhanera,24.5041774,72.0153786
Neemrana,27.976432,76.3527772
Bilaigarh,21.6397056,82.711819
Hariharganj,24.5454636,84.2702651
Khardah,22.7053112,88.3445405
Industrial Estate Barwala,37.2811053,127.0507571
Mamllapuram,12.6223265,80.1736327
Guna,37.2811053,127.0507571
Chapar,37.2811053,127.0507571
Chandannagar,22.8616353,88.3509187
Rajgarh Churu District,28.6358126,75.3671979
Muzafferpur,37.2811053,127.0507571
Bhubnaneswar,37.2811053,127.0507571
Unjha(gujarat),23.8049694,72.3714976
Pimpri,18.6323494,73.775703
Ganaur,29.1334385,76.9943327
Maibong,25.3089917,93.0984872
Fatehgarh Sahib District,30.6524595,76.0750404
Bhuj,23.2507239,69.5988798
Kashinagara,18.8540154,83.8673314
Tindwari,25.6200321,80.5184877
Mahalingpur,16.3886426,75.1025391
Makundapur,19.6092846,84.6724355
Amlajora,23.466254,87.3664303
Marowa,37.2811053,127.0507571
Jagadishpur,22.6529796,88.2751009
Mahrajganj,27.1494313,83.5360791
Mukhed,18.7057804,77.3537763
Rakri,31.9198537,75.7891804
Kasara,37.2811053,127.0507571
Bangarapet,12.9948517,78.1635457
Fazi Nagar,37.2811053,127.0507571
Lakhisarai,25.1725811,86.0815324
Kiraoli,27.1358012,77.7685309
Mulbagal,13.1638945,78.3761437
Parsadepur,26.0758947,81.4972552
Chhota Udaipur,22.3084319,73.9930806
Toranmal,21.8711663,74.4458054
Sangareddy,17.6114226,78.0621135
Sampla,37.2811053,127.0507571
Dausa,26.8934982,76.2730097
Nagojanahalli,12.3709805,78.2730938
Cheruvannur,11.1905054,75.8155775
Kharagpur,22.3308891,87.1924586
Kondapalli,16.6192231,80.5350382
Chilakaluripet,16.0940505,80.1450146
Ramgarh,23.6351969,85.4784172
Siwan,26.2228149,84.3248017
Barkakana,37.2811053,127.0507571
Shihori,37.2811053,127.0507571
Chhipabad,37.2811053,127.0507571
Tinsukia District,27.5941712,95.057988
Nakhatrana Gidc,37.2811053,127.0507571
Lafarge Cement Factory Arasmeta,37.2811053,127.0507571
Harsul,19.9173237,75.3367079
Kheda District,22.851674,72.3979598
Sangrur District,30.2082781,75.3199826
Lohardaga District,23.4770797,84.3900577
Narmada District,21.7382443,73.3624271
Balangir,20.6988752,83.466541
Aranghata,23.2427651,88.6077404
Puthur,37.2811053,127.0507571
Kotba,22.4285491,83.7390404
Nanminda,11.4209121,75.824697
Kolkataa,22.6757521,88.0495361
Bihiya,25.5578268,84.4476201
Erich,37.2811053,127.0507571
Nashik District,20.2133219,72.971861
Bangalore Urban,12.9412605,77.3016447
Nangal,31.3820653,76.3480705
Banswada,18.380955,77.8570331
Nizamabad,18.6803807,78.0256294
Daltonganj,24.047559,84.0446422
Rajarhat Gopalpur,22.6254061,88.4129458
Guhla,30.0389831,76.2943625
Indragarh,25.7302453,76.1820316
Kelamangalam,12.6000928,77.8437782
Belsor,26.399225,91.34103
Dhaliyur,11.0094217,76.8464525
Porkulam,10.6767391,76.0618901
Satrikh,26.8592508,81.1869585
Tirur,10.91363,75.8827394
Shahapur,19.4530268,73.308079
Sadalgi,16.5525372,74.5249629
Utarlai,25.8117065,71.4430612
Jharia Khas,23.7424998,86.3925152
Shivpuri,25.4333044,77.6290292
Uthiramerur,37.2811053,127.0507571
Visakhapatnam,17.7384734,82.9823971
Lower Siang District,37.2811053,127.0507571
Belagaum,16.1564773,74.2145309
Munirabad Project Area,15.3036098,76.3320503
Shakti Nagar Ntpc Township,37.2811053,127.0507571
Kolavelloor,11.7741205,75.5927079
Kuthanallur,10.708772,79.5050631
Gariadhar,21.5353467,71.5633234
Peraiyur,9.7364031,77.7786749
Hindnagar,37.2811053,127.0507571
Bhadgaon,20.6718225,75.2164188
Thane District,19.3625525,72.7264249
Pithoragarh,29.5904813,80.1958818
"Tehatta ,nadia District",23.7322007,88.5196135
Neem Ka Thana,27.734557,75.7380488
Kailasagiri,37.2811053,127.0507571
Mehsi,26.3549627,85.1136759
Shrawasti District,27.6055702,81.6482809
Ghaziabad District,28.7571711,77.1759795
Manihari,25.3407355,87.6101834
Banglaore,12.9538477,77.3507442
Isagarh,24.8371001,77.8571246
Begun Kodar,23.3583848,86.0510452
Mangawan,24.6535282,81.5331853
Lumding Rly Colony,37.2811053,127.0507571
"Raipur,",21.2618911,81.5490329
Khor,37.2811053,127.0507571
Samastipur District,25.7739615,85.4134687
Barast,37.2811053,127.0507571
Bissau,11.8695383,-15.6823639
Davanagere,14.4558615,75.8462593
Quilandy,11.4526191,75.6643861
Borbil,37.2811053,127.0507571
Dahi,37.2811053,127.0507571
Tiruchirappalli ,10.8158368,78.6189874
Peddapalle District,14.5929199,74.3393552
Gosainganj Faizabad District,26.571505,82.3715829
Vinukonda,16.0541867,79.7262566
Karugampattur,12.9238832,79.1020292
Talgram,27.0456531,79.6435994
Maniyur,11.5505029,75.6038353
Dharmsala,32.2167773,76.3016556
Gangaikondan Tirunelveli District,8.8585227,77.7759799
Sadaura,30.3828046,77.2007559
Tehri Garhwal,30.3853897,78.4603023
Cherukavu,11.1651055,75.9043041
Hassan,13.012619,76.0689652
Allapalli,17.8297697,80.4716778
Musafirkhana,26.3740451,81.7947955
Shendra Midc,37.2811053,127.0507571
Hisar District,29.2192171,75.2579108
Mangalbari,25.0171728,88.1403064
Nayabazar,26.9469965,87.9907244
Biswanath Chariali,26.7233694,93.1051392
Patihal,22.6593025,88.105266
Sukdal,23.3958873,87.5277952
Machhiwara,30.9149797,76.176947
Kamatgi,16.1055977,75.8601614
Chowwara,10.1243569,76.3586171
Magalore,12.9229829,74.7820231
Dakshin Dinajpur District,25.3871509,88.0257108
Gogipeth,16.7337949,76.7415476
Mehkar,20.1497702,76.5583776
Dwarapudi,16.9328798,81.9056509
Palampur,32.1192814,76.5056557
Naigaon,19.3417248,72.8131451
Bhojudih,23.6405591,86.4309604
Samudrapur,20.6374226,78.9542555
Telhara,21.026331,76.824517
Sullur Pet,37.2811053,127.0507571
New Bongaigaon Railway Colony,37.2811053,127.0507571
Narasinghpur,20.4624385,85.0572465
Pallapatti Karur District,10.7194591,77.8717372
Mankuva,23.2095781,69.551954
Hazaribag,23.9938346,85.2952528
Mangalpady,12.651623,74.9105142
Kumarapuram,8.3438532,77.8315526
Dhania,37.2811053,127.0507571
Muttayyapuram,8.7612811,78.0944604
Kakati Industrial Area,37.2811053,127.0507571
Kurukshetra,29.9692631,76.8118615
Deglur,18.5466978,77.5603302
Irikkur,11.9857322,75.547456
Sonatola,24.9930231,89.452312
Ongallur,10.8034404,76.2010644
Kilapavoor,8.9025449,77.3867904
Disa,37.2811053,127.0507571
Avinashi,11.1733137,77.2042081
Mahidpur,23.4890633,75.6210799
Yadagir District,37.2811053,127.0507571
Jateshwar,37.2811053,127.0507571
Yawal,21.1693681,75.6797718
Edathala,10.0771736,76.3406434
Bachra,23.6908127,85.0539239
Koni,37.2811053,127.0507571
New Paloncha,17.5987616,80.667072
"Hyderabad ,",17.4121531,78.1278513
Mundaragi,15.2050593,75.8762382
Wadhwan,22.7123545,71.6494354
Bhonrasa,23.614294,77.4554154
Makrana,27.0376854,74.6406564
Chinniampalayam,10.6527073,77.0274012
Alirajpur,22.305455,74.3454265
Thanesa,37.2811053,127.0507571
Murulia,23.609544,86.8233504
"Silchar,cachar",24.8281676,92.74862
Bellampalli,19.0704047,79.4715356
Sahaspur,29.1204486,78.6108255
Sirka,37.2811053,127.0507571
Malegaon Jahangir,20.2302741,76.9907503
Pampalner,37.2811053,127.0507571
Mahendragarh District,28.1204902,75.8852744
Pathiyoor,9.2169772,76.4753578
Weir,37.2811053,127.0507571
Naini Industrial Area,37.2811053,127.0507571
Midnapore.,22.4308946,87.2835439
Alathur,10.6397172,76.5255564
Rajpur,37.2811053,127.0507571
Alangayam,12.6231682,78.7344645
Telkap,24.7049606,83.9851567
Sibsagar,26.9877482,94.6254815
Rudravathi,10.8451006,77.394378
Pombhurna,19.8649515,79.5991604
Shahabad Rampur District,28.5665066,79.0001965
Kudchi,16.6255029,74.8382503
Majuli District,37.2811053,127.0507571
Anjuna,15.5782948,73.7286758
Muktsar District,30.2845367,74.2560103
Arimalam,10.2571965,78.8783299
Sivagangai District,9.9644823,78.0028664
Dighawanii,37.2811053,127.0507571
Peruvilai,8.1849395,77.3941191
Khilchipur,24.0427791,76.5705871
Koriya District,23.4295448,81.6163907
Nurpur,32.3002387,75.8685912
Nagrota,32.7983231,74.8976542
Athirampuzha,9.6678459,76.5135197
Nava Bhildi,37.2811053,127.0507571
Ranipet,12.9534546,79.2815917
Gumia,23.8023807,85.7923216
Eranakulam District,37.2811053,127.0507571
Ottappalam,10.776395,76.3379426
Raighar,19.8865642,82.0651824
Baghpat District,29.0389792,77.0345998
Colgong,25.2535397,87.2162956
Kureekkad,9.9266503,76.3708447
Guskara,37.2811053,127.0507571
Kannur District,11.9862989,74.9956768
Mallasamudram,11.4954062,78.0213188
Pileru,13.6565303,78.9228267
Uttar Pirpur,22.4924791,88.0825504
Kaliyakkavilai,8.3338852,77.1651363
Karimpur,23.9773697,88.6110232
Bariwala,30.538654,74.6482372
Sullurpet,13.7011586,80.0076899
Solan District,31.0561372,76.6495957
Peddapalli District,14.5929199,74.3393552
Pithapuram,17.1165983,82.2392011
Trivendrum,8.4997267,76.8541261
Pallippuram,37.2811053,127.0507571
Kharupetia,26.5154199,92.1033663
Ramjibanpur,22.825118,87.590389
Halisahar,22.932196,88.4055148
Maramangalathupatti,11.6667415,78.0219649
Pune,18.5245649,73.7228812
Trichur,10.5113799,76.1532099
Talbehat,25.0442586,78.4135514
Kakkanad,10.0089331,76.3156612
Puruliya District,23.3307423,86.3273686
Chhatral Ina,23.2862044,72.4241186
Ilambazar,23.624747,87.5233982
Mandleshwar,22.1758265,75.6508985
"Sabalgarh,",26.2468109,77.3893482
Joynagar,22.1726042,88.3987888
Pandavapura,12.5009858,76.6515522
Kadayampatti,11.8816433,78.069286
Ulhasnagar,19.2240581,73.1319121
Hapur District,28.7159314,77.5915046
Puthencruz,9.9751533,76.4021828
Dhrangadhra,22.9851843,71.4295579
Kakarhati,24.575951,80.2311955
Dhanbad,23.8020368,86.3642094
Srisailam,16.0745164,78.8615155
Hilsa,37.2811053,127.0507571
Budni,37.2811053,127.0507571
Bhopal,23.1993477,77.2658056
Nellimarla,18.1640673,83.4423722
Varappuzha,10.0726836,76.2526701
Asika,37.2811053,127.0507571
Ghogha,21.6859764,72.2656944
Dhaulpur,26.7007317,77.8398126
Muddebihal,16.3410066,76.1142942
Jhunjhunun Shekhawati,37.2811053,127.0507571
Mathura,27.4743568,77.6141143
Satghara,30.9196159,73.5042152
Anthicad,10.4525313,76.0987543
Suswasara,37.2811053,127.0507571
Shrawasti,27.5077543,82.0158139
Sakit,37.2811053,127.0507571
Chittaurgarh,24.9048329,74.5865747
Jhabua District,22.8148602,74.0251847
Gorakhpur 9445264944,37.2811053,127.0507571
Auraiya,26.4619376,79.4783163
Kallakkurichi,11.7355571,78.9355599
Gautam Buddha Nagar District,28.3693136,77.2386295
Gazipur,23.9946684,90.400157
Khekada,37.2811053,127.0507571
Magarlod,20.7464821,81.8405806
Mangalore,12.9229829,74.7820231
Warangal Rural District,37.2811053,127.0507571
Pudukad,10.4182554,76.2527024
Vile Bhagad Midc,37.2811053,127.0507571
Kushalnagar,12.4555169,75.9395138
Makkinampatti,10.6522839,77.0189107
Kotturu,14.825798,76.2051978
Rajanna Sircilla District,37.2811053,127.0507571
Ferozepur,30.9319375,74.5892518
Mulchera,19.6693457,79.9843405
Cuttackk,37.2811053,127.0507571
Pallikkara,37.2811053,127.0507571
Firozabad Upsidc,37.2811053,127.0507571
Singtam,27.1363429,88.3891927
Punhana,27.8657632,77.1874737
Agarwal Mandi,28.9635354,77.2244405
Tapi District,21.1866912,73.2059773
Jalgaon Jamod,21.0462214,76.4966853
Nalanda,25.1222547,85.4506033
Kanpur Nagar,26.440017,79.6836906
Namchi,27.165376,88.3478879
Thiruparappu,8.3930731,77.2577369
Nahan,30.5600418,77.2758363
Faizganj,28.388419,78.8413702
Jangaon District,37.2811053,127.0507571
Badgam,33.8967129,74.3908732
Doharighat,26.2607318,83.4924073
Chanderi,24.7117389,78.1293154
Jalgaon,20.99007,75.5053828
Boda,37.2811053,127.0507571
Shahadra,28.6824909,77.2321068
Vidisha,23.5201921,77.7800053
Agra,27.1761049,77.8399274
Theni Allinagaram,10.0093375,77.4837071
Chakmano,37.2811053,127.0507571
Asarganj,25.1473629,86.6837382
Nagpur District,21.1514375,78.3912023
Aheri,19.412896,79.9966838
Bechar Alias Becharaji,37.2811053,127.0507571
Tisra,23.726614,86.4169454
South Salmara Mankachar District,37.2811053,127.0507571
Tirap District,27.0144658,95.5000281
Cheeka,30.0443675,76.3126885
Arookutty,9.8606125,76.3114824
Rath,37.2811053,127.0507571
Mangattidam,11.8443659,75.5352076
Pirangut,18.507957,73.6647788
Somvarpet,12.5954539,75.8280228
Karanjia,21.771275,85.9532975
Kandanassery,37.2811053,127.0507571
Yelamanchili,13.4593149,74.7447701
Kharsarai,22.7441518,88.2366322
Bawal,28.0905047,76.5525192
Mehmedabad,37.2811053,127.0507571
Bantwa,21.4907061,70.0620623
Punganuru,13.3654836,78.5357659
Sanjan,20.1924595,72.8115677
Diamond Harbour,22.1977201,88.1652791
Kasaragod,12.5000424,74.9664918
Uppada,17.0829684,82.3268652
Chemancheri,11.4006316,75.7120107
Sarapaka,17.6962788,80.8472727
Belgaum District,16.1564773,74.2145309
Krishnagar,23.4016752,88.4633082
Uklana Mandi,29.5163317,75.8601975
Farukhabad,27.3812108,79.5570975
Khurda,20.179556,85.5893304
Bethamangala,13.0073416,78.3189092
Fatehganj Pashchimi,28.4650719,79.2970648
Kondamallapalle,16.713832,78.9534754
Jandiala Amritsar District,31.5608744,75.0187468
Palej,21.9188399,73.0604337
Kalyan District,37.2811053,127.0507571
Taloda,21.5597135,74.1973255
Koteshwar,23.6948899,68.5291327
Bhuvanagiri,11.4450304,79.609611
Meghnagar,22.9070691,74.5284641
Gane Midc,37.2811053,127.0507571
Jodhpur District,26.7290071,71.7148558
Sindgi,16.9167058,76.2193232
Mahemdabad,22.8110704,72.7154581
Nuahata,20.8311813,85.1874154
Dahivadi,17.7013903,74.5368718
Arambhada,22.4333176,69.0269845
Kantilo,20.3618073,85.1857566
Handiaya,30.3335655,75.4905463
Needamangalam,10.7747981,79.3980731
Ekangar Sarai,25.2238485,85.2221918
Neduva,11.0515008,75.8346906
Ghatabillod,22.6707404,75.5025829
Kallakurichi,11.7355571,78.9355599
Kolayat,27.8375818,72.9372456
Jajpur,20.8389948,86.2968732
Guntur,16.3235591,80.3644781
Dindori District,22.9054871,80.5504749
Iriveri,11.8718585,75.4525144
Saharanpur District,29.9847384,76.9790272
Chikballapur Industrial Area,37.2811053,127.0507571
Mandapam,9.2771091,79.1078273
Bodri,37.2811053,127.0507571
Annamanada,10.2409374,76.3061426
Zira,37.2811053,127.0507571
Gajendragada,15.7344727,75.9611892
Ner Persopant,37.2811053,127.0507571
Narsapur,16.4328831,81.6725993
Rohtas,24.6280587,83.9111495
Maunath Bhanjan,25.9396535,83.5276468
Dharampuri,22.154321,75.3335038
Bangarpet,12.9948517,78.1635457
Khatav,17.6640268,74.3444013
Pacode,8.334735,77.1802359
Rangia Iidc,37.2811053,127.0507571
Koppal,15.3454454,76.1124017
Lakhipur Goalpara District,26.0356818,90.2948297
Masratu,23.974669,85.3041654
Kalna,23.2228115,88.3233871
Sanvordem,15.2746807,74.0971102
Behrampur,37.2811053,127.0507571
Ghoda Dongri Ryt,22.1178741,77.9920204
Saligram,37.2811053,127.0507571
Barhalganj,26.2865418,83.4977245
Valpoi,15.5313155,74.1275024
Mauranipur,25.2438406,79.1156814
Fatellapur,24.5323948,88.0597452
Pallapalayam Coimbatore District,37.2811053,127.0507571
Kota District,25.1886492,75.5452885
Biramitrapur,22.4096337,84.6846845
Tirunalveli,8.721555,77.6721372
Jasdan,22.0333718,71.1691179
Sagar,37.2811053,127.0507571
Dharmapuri District,12.1387864,77.6499165
Bhagha Purana,37.2811053,127.0507571
Surat,21.1591425,72.6822102
Kulgam,33.646258,74.9988488
Totaladoh,21.6470574,79.2358339
Karuppur,11.7167676,78.0816479
Amravati District,21.1533919,76.4188275
Kurnool  District,15.5228726,76.8373679
Karimnagar,18.4348018,79.0981286
Dhaura Tanda,28.5745339,79.3986204
New Delh,28.5272181,77.0688997
Jashpurnagar,22.893284,84.1213404
Gidderbaha,30.2045545,74.6404694
Bhulepur,26.5100388,82.8082574
Kharibari,37.2811053,127.0507571
Thrithala,10.7973821,76.1175173
Kancheepuram District,12.6249284,79.6292897
Goa Velha,15.4547928,73.8820341
Rajgarh Rajgarh District,24.0051091,76.7103623
Aimanam,9.6149607,76.4764939
Nadapuram,11.6822292,75.6405607
Bagaha,27.1254986,84.0465233
Vasai(e),37.2811053,127.0507571
Mandi,37.2811053,127.0507571
Bansda,20.7664261,73.3531379
Rishra,37.2811053,127.0507571
North Delhi,28.7848827,76.9552146
Sanand Gidc,37.2811053,127.0507571
Hanspura,23.0806112,72.6779693
Gorakhpur Air Force Area Township,37.2811053,127.0507571
Balichak,22.3592437,87.5459718
Sonipat,28.9489924,76.9437693
Madhubani,26.3460241,86.0385828
Nepanagar,37.2811053,127.0507571
Bayarsing,37.2811053,127.0507571
Peddapally,18.6076053,79.364981
Jamnagar,22.4743153,69.9883731
Dausa District,26.8066966,76.0409063
Lalru,30.4857546,76.7912363
Hindoria,23.9021315,79.5645762
Eriodu,10.5158189,78.0464457
Chabua,27.4837992,95.164146
Shil,37.2811053,127.0507571
Kalyani,37.2811053,127.0507571
Kopaganj,26.0229072,83.5476589
Hapur,28.7274674,77.7482265
Bhilai,21.1952101,81.197989
Kanjiramkulam,8.3590644,77.0438576
Rajgarh District,23.8682457,76.1473164
Shrigonda,18.6172383,74.6875263
Farakka Barrage Township,24.798694,87.8929454
Bilaspur Gautam Buddha Nagar District,28.3929578,77.6159931
Bhokarhedi,29.5072686,77.9267848
Sipcot Perundurai,37.2811053,127.0507571
Baddi,30.9605272,76.7208221
Vaniyanbadi,37.2811053,127.0507571
Birur,13.5955605,75.9538935
Ferozepur City,30.9319375,74.5892518
Gogri Jamalpur,25.4069175,86.6340787
Tezpur,26.6760558,92.7255688
Medak District,17.8524677,77.164941
Thiruchengode,11.3782493,77.8794174
Vellalour,37.2811053,127.0507571
Baben,37.2811053,127.0507571
District Saharanpur,29.9636149,77.4863871
Satgawan,37.2811053,127.0507571
Devinagar,13.0538034,77.5617478
Namakkal District,11.3030081,77.5257134
Majitha,31.7563964,74.9476146
North 24 Parganas,22.6823617,88.1551184
Fatepur,27.0944327,77.6560319
Chekkiad,11.750652,75.6287111
Ananthapuram,12.1200816,79.3552779
Gondia,21.4691339,80.0766531
Kareli,37.2811053,127.0507571
"Arani,tiruvannamalai District",12.6704004,79.2465513
Bodh Gaya,24.6991566,84.9676864
Karunguzhi,12.5337226,79.8945952
Dankuni,22.6746154,88.272786
Paravai,9.9652999,78.0576897
Kanchipuaram,12.8298467,79.6768836
Berigai,12.8056478,77.9670069
Chak Alampur,22.415459,88.1471904
Khordha,20.179556,85.5893304
Indukurpet,14.4717276,80.0803326
Adipur,23.0752536,70.050006
Vadakkuvalliyur,8.3926974,77.5512688
"Gopalganj,bihar",26.47168,84.3987101
Balapur,20.6835185,76.7279122
Lailunga,22.3779017,83.5548454
Jalgaon District,20.8372017,74.4598503
Cuttcak,37.2811053,127.0507571
Kakori,26.8680096,80.7782049
Darbhanga,26.1506267,85.8681586
Alangulam Virudhunagar District,9.3645945,77.6728398
Jayankondam,11.2121432,79.3458554
Chiknayakanhalli,13.4144376,76.6130518
Maldah District,25.0963368,87.8329032
Tiruchendur,8.4954858,78.1138502
Khilchian,31.5510926,75.1675451
Bengalore,12.9538477,77.3507442
New Tirupur,37.2811053,127.0507571
Kalugumalai,9.1524977,77.6910637
Songadh Bhavnagar District,21.7172039,71.8781161
Mewat District,27.9922011,76.8205344
Dakshin Raypur,22.400779,88.1316954
Homnabad,17.7703466,77.1144746
Jaitaran,26.2025377,73.9174317
Kilpennathur,12.2406428,79.2106417
Buguda,19.8108163,84.7837166
Dhanbad District,23.8445113,85.9113914
Dokmoka,26.2116202,93.0179352
Simlapal,22.9183076,87.063657
Chhabra,37.2811053,127.0507571
Nandigram,21.9971171,87.9257165
Badami,15.9211152,75.6615756
Nagalapuram,13.3888966,79.7879655
Thandya Industrial Estate,37.2811053,127.0507571
Naroli,20.2730706,72.9225477
Arwal District,25.1813143,84.3784747
Konganapuram,11.5637108,77.88623
Kadwad,14.837179,74.1679609
Bangalore Rural District,13.1807412,77.014728
Panaji,15.4832361,73.8034995
Yercaud,11.8295292,78.1505986
Mora,37.2811053,127.0507571
Rahon,31.0538514,76.1000202
Bhakhara,20.8972851,81.5887534
Sopore,34.2890163,74.446225
Haliya,37.2811053,127.0507571
Bodhan,18.6832217,77.8480605
Pathirappally,9.5406263,76.3157881
Sanawad,22.1797161,76.0482643
Akalgarh,30.7591789,75.6337254
Ayyampettai Kancheepuram District,12.8062076,79.7512953
Dadra,37.2811053,127.0507571
Derapur,26.4192357,79.791181
Machalpur,24.1282268,76.3036537
Belumilki,22.7498767,88.2835698
Garulia,22.8188808,88.3589187
Lawan,37.2811053,127.0507571
Chatra District,24.1038331,84.3383168
Hospet,15.2649093,76.3447446
Hamirpur,31.6908068,76.5010211
Dalli Rajhara,20.5826589,81.0366362
Kannivadi Tiruppur District,10.8103436,77.7829993
Ahmedabad,23.0199968,72.2995501
Mahendergarh,28.2638602,76.1271124
Lavachha,20.3052691,72.9639804
Baktarnagar,23.600569,87.1273254
Pathamadai,8.6682996,77.5786256
Fatehnagar,24.810458,74.0753173
Jirat,37.2811053,127.0507571
Kavant,22.0928023,74.0506209
Ganj Muradabad,26.9653947,80.1792325
District Begusarai,25.4178322,86.0900269
Jamui,24.9285055,86.1889021
Gudalur Coimbatore District,11.1627237,76.8987455
Ganganagar District,29.4479876,72.3504851
Halkarni Midc,37.2811053,127.0507571
Kovvur,17.0138133,81.7110037
Kanhan,21.0778278,79.5400705
Kantabanji,20.46473,82.902746
Rani,37.2811053,127.0507571
Jarhi,23.359404,83.0314104
Washim District,20.2986631,76.5866611
Saidapur,16.5685592,77.2469429
Vijainagar Ganganagar District,29.2387563,73.5085773
Saunkh,27.3962589,77.4701804
Nilokheri,29.8394504,76.9113777
Bheemunipatnam,17.9033218,83.3947104
Sansikhara,37.2811053,127.0507571
Sindkheda,21.2720472,74.7288944
Marcaim,37.2811053,127.0507571
Murud Janjira,37.2811053,127.0507571
Japla,24.5348634,83.9791488
Khairagarh,21.41767,80.9633574
Sonitpur,26.73586,91.9444175
Vanjipalayam,11.12177,77.2594857
Jeron Khalsa,25.1052509,78.6295305
Kotulpur,23.0123587,87.5779007
Velayudampalayam Karur District,10.8205631,78.2686052
Sikar District,27.6569937,74.2709938
Paravada Industrial Area,37.2811053,127.0507571
Koduvally,11.3595483,75.9073842
North Lakhimpur,27.2311577,94.0656274
Kanad,37.2811053,127.0507571
Kappalur Sidco Industrial Estate,37.2811053,127.0507571
Botad District,37.2811053,127.0507571
Devbhoomi Dwarka,22.1596323,68.8755687
Kodalia,22.9138941,88.3551204
Barabazar,22.5810584,88.3463372
Chopda,21.2444003,75.2691627
Kavindapadi,37.2811053,127.0507571
Par Patiram,25.3315647,88.7430752
Khowai District,23.9541468,91.3735878
Tanalur,10.9508826,75.9047552
Salem District,11.6442906,77.6894325
Buldana District,20.5614735,75.8160564
Tendukheda Damoh District,23.3908213,79.5289242
Olagadam,11.5653344,77.6410032
Aroor,9.8733726,76.2893888
Atraulia,26.332583,82.9383873
Leather Park Banthar,37.2811053,127.0507571
Vavarai,8.2928063,77.1574061
Thrikkadavoor,8.9172012,76.5882171
Mandi District,31.6508106,76.4455556
Nagapattinam District,10.8482247,79.1396615
Erumaipatti,11.1523814,78.2781455
Kesaria,37.2811053,127.0507571
Mahrajganj District,27.1818111,82.972952
Sathyamangalam,11.5026891,77.2200664
Ujhari,28.6599198,78.3480978
Dubra,37.2811053,127.0507571
Adoni,15.6276853,77.2361937
Mahbubnagar District,16.5336966,77.1144651
Mairwa,26.2422694,84.1343308
Barasat,22.7224702,88.4473926
Pudupakkam,12.920217,79.6691085
Baliapur,23.7209008,86.5104336
Ichalkaranji,16.7043074,74.429025
Kiratpur,31.183801,76.5609481
Bahadurgarh I,37.2811053,127.0507571
Kolkat,22.6757521,88.0495361
Gokul Shirgaon Midc,16.6431966,74.2711239
Pandhana,21.6969974,76.2107287
Saputara,20.5763521,73.7315919
Farakka Pts Township,37.2811053,127.0507571
Nagda,23.4498338,75.3869846
Bhandar Gachha,22.5549198,88.0378852
Nakhatrana,23.346687,69.2500767
Raibareilly,26.2362505,81.2068467
Gondiya,21.4691339,80.0766531
Avinissery,10.4717938,76.2244902
Bhokar,19.2200115,77.6513473
Dabhol,17.5880639,73.1626461
Chapra,25.7804743,84.6759843
Badnagar,23.0519228,75.3574345
Atgaon Industrial Complex,37.2811053,127.0507571
Rahimatpur,17.5927573,74.1848667
Sakri,20.9943768,74.2999791
Kattuputhur,10.996215,78.2069062
Faridabad District,28.3568385,77.1948747
Parassala,8.3469999,77.1374021
Edathiruthy,10.3796725,76.1230773
Morbi 2,22.8117405,70.8268599
Shahapur Thane District,19.4530268,73.308079
Ooty,11.4118505,76.658402
Mahagaon Midc,37.2811053,127.0507571
Sarai Aquil,25.3819399,81.5233477
Nongpoh,25.8621136,91.8017703
Maduranthakam 603306,12.5056313,79.8686741
New Delhu,28.5272181,77.0688997
Bijauli Industrial Area,37.2811053,127.0507571
Gorakhpur,29.4467165,75.6636035
Jaggayyapeta,16.8968295,80.0874484
Mahagma,25.0285745,87.2978556
Sironcha,18.8464917,79.9564576
Chandrakona,22.7340863,87.4918554
Shenkottai,8.9731289,77.2281965
Athagad,20.5165481,85.61182
Ranaghat2,37.2811053,127.0507571
Nalsarovar,22.822828,72.0383445
Koodali,11.9216593,75.4694115
Nayagarh,20.1267865,85.0864961
Grugaon,28.4228859,76.8496963
Barshi,18.2358671,75.6579488
Wadwani,18.9905302,76.0322571
Matigara,26.7267125,88.3739403
Amarshi Kasba,22.0621347,87.5859903
Athur Thoothukkudi District,8.6153541,78.0693358
Kabrai,25.4051329,79.9849532
Lunkaransar,28.4906528,73.7250625
Khetri,28.0722737,75.8168803
Tanda,37.2811053,127.0507571
Visakhapatanam,17.7384734,82.9823971
Digha Purba Medinipur District,21.623487,87.4758358
Deogarh,21.5366021,84.7106193
Tangla,37.2811053,127.0507571
Bhavnagar,21.7638189,72.0848657
Nasik,19.990908,73.6633947
Sunabeda,18.7332363,82.793526
Kamptee,21.2205351,79.1608475
Majhgawan,24.9162716,80.7883499
Deoni Bk,37.2811053,127.0507571
Bhikhi,30.0608634,75.5107752
Semaria,24.7933419,81.1453443
Itanagar,27.0845625,93.5788601
Jowai,37.2811053,127.0507571
Barpali,21.190654,83.5820204
Birbhum,24.0612795,86.9951817
Kannanoor,37.2811053,127.0507571
South West Delhi,28.587128,76.8333995
Hojai,26.0016322,92.8208787
Mogra,37.2811053,127.0507571
Unnamalaikadai,8.3053176,77.2189524
Hailakandi,24.6798169,92.5456463
Sholapur,17.6614569,75.8485768
Kanniyakumari,8.0864016,77.5283608
Khonsa,26.9901772,95.4821561
Neral,37.2811053,127.0507571
Balaghat,21.8116963,80.1540177
Chekanurani,9.9435735,77.9641772
Thiruthangal,9.479969,77.7914444
Bundu,37.2811053,127.0507571
Aundha Nagnath,19.5404184,77.0331394
Parole,37.2811053,127.0507571
Rajgurunagar Khed,18.8554505,73.8666211
Khetasarai,25.9677572,82.665508
Cooch Behar,26.3299506,89.3765903
Manasa,37.2811053,127.0507571
Eravu,10.4902276,76.1168707
Sarkaghat,31.699837,76.7266463
Nandgaon Khandeshwar,20.6843434,77.82531
Mohammadabad Ghazipur District,25.6171098,83.7342093
Rampur Bushahr,31.4516834,77.625388
Mohana,37.2811053,127.0507571
Tanuku,16.7565034,81.6415923
Panaimarathupatti,11.5654526,78.1586533
Aligarh District,27.876097,77.4849533
Pipariya,22.7550881,78.3341501
Moranhat,27.175325,94.8949069
Salap,22.6137137,88.2663595
Tadpatri,14.9113689,77.9556363
Sanchore,24.7507992,71.7575453
Lakhisari,25.1725811,86.0815324
Nawabganj Unnao District,26.6196653,80.6628871
Mannargudi,10.6661157,79.4125267
Badmal Township,37.2811053,127.0507571
Vilayat Gidc,37.2811053,127.0507571
Salt Lake,40.7762691,-112.2006695
Janakpur Road,26.4553764,85.6887358
Baddi Industrial Area,37.2811053,127.0507571
Papum Pare District,27.1570977,93.5533807
Jagatsinghpur,20.249026,86.0971044
Gangi,37.7950646,14.1958165
Gadag District,15.4130126,75.0995302
Medarametla,15.7236695,79.9973128
Lodhika Gidc,37.2811053,127.0507571
Jamshila,24.1452111,82.7215404
Manesar Gurgaon,28.3503635,76.934391
Agartala,23.8510778,91.2243078
Mauganj,24.670489,81.8574661
Manendragarh,23.2146552,82.1878944
Mallawan,27.0355853,80.1361325
Chakan Midc,37.2811053,127.0507571
Dehu,18.7211538,73.7501905
Narnaund,29.2209493,76.1329365
Trichy,10.8158368,78.6189874
Bara Banki,26.9387026,81.1609907
Sirauli,28.4921632,79.0813064
Chennithala,9.2833815,76.4844926
Jalkot,18.6283879,77.1709727
Akbarpur Kanpur Dehat District,26.3808344,79.9367808
Manapparaia,37.2811053,127.0507571
Badarpur Rly Town,24.857794,92.5459454
Mohiuddinpur,29.9851772,77.6392972
Paschim Bardhaman District,37.2811053,127.0507571
Ramanujganj,23.8054699,83.6911302
Chandrapura,23.7469116,86.1004112
West Tripura,23.9162668,91.1337335
Kalara,37.2811053,127.0507571
Narsimhapur,22.9463267,79.1654515
Thiruvattaru,8.3326323,77.2502588
Haora,22.5565568,87.895755
Bhilad,37.2811053,127.0507571
Naudhia,24.203879,82.5543954
Vicarabad,17.3401166,77.8575143
Gohad,26.4425833,78.4173969
Dergaon,26.6997746,93.9750102
Candola,37.2811053,127.0507571
Garbeta,22.8603182,87.342553
Petlawad,23.0114132,74.7915745
Sumerganj Mandi,25.7223197,76.2171103
Jorethang,27.131095,88.2718782
Budaun District,28.063567,78.4976736
Nanded,19.147251,77.2458145
Manikpur Sarhat,25.058984,81.0849354
Chikkaballapur,13.4311128,77.7139459
Kulti,23.7332993,86.8231915
Chittaurgarh District,37.2811053,127.0507571
Rae Bareli,26.2362505,81.2068467
Alangulam Tirunelveli District,8.8655402,77.4766445
Nagothana,18.543596,73.1301781
Gandhinagar,23.2207058,72.6105285
Ledo Town,37.2811053,127.0507571
Behat,37.2811053,127.0507571
Nayudupeta,13.9027039,79.8740993
Domlur,12.9630167,77.6268656
Teleni Para,22.775074,88.3957154
Jagiroad,26.1331508,92.1514295
Rai Bareilly,26.2362505,81.2068467
Tiruppur,11.1085742,77.2937723
"Kothagudem,khammam Dist",17.526497,80.5801778
Ranjangaon Midc,18.786337,74.247257
Kalady,10.1687272,76.3978571
Urimari,23.6927224,85.3085483
Idappadi,11.5839691,77.822728
Safidon,29.4065518,76.641998
Bayad,37.2811053,127.0507571
New Barrackpore,22.686998,88.4247034
Janjgir Champa,21.9697289,82.2519584
Kalipur,26.7340742,88.8362217
Mudbidri,13.0678942,74.9859516
Chechat,24.7594359,75.8608754
Bijnor District,29.3988776,77.9102411
Cheema,37.2811053,127.0507571
Beelna,29.0231705,78.3896827
Atasu,37.2811053,127.0507571
Bulandshahr,28.4058965,77.8207314
Sidco Industrial Estate Kittur Belagavi,37.2811053,127.0507571
Jannaram,19.1169069,78.9805411
New Barrackpure,22.686998,88.4247034
Pansemal,21.6579864,74.6897792
Podalakur,14.3830555,79.7211742
Thathaiyangarpet,37.2811053,127.0507571
Champa,37.2811053,127.0507571
Sirmaur District,30.7007616,76.8620736
Tamluk,22.2812708,87.9013536
Pipiganj,26.9314298,83.2882104
North East District,-21.0215506,27.0523112
Bellary District,15.1945259,75.2944378
Chanari,37.2811053,127.0507571
Irinjalakuda,10.3511956,76.1899279
Karjan,22.051248,73.1017299
Apiic Gambheeram,37.2811053,127.0507571
Vaniyamkulam I,10.7840217,76.2841369
Nalgonda,17.0583372,79.2370027
Bidhuna,26.8024344,79.4898363
Shirwal,18.1427821,73.9571786
Rajnandgaon,21.0973137,80.9484968
Kasdol,21.6274461,82.4047633
Doboka,26.1145972,92.8481915
Subarnapur,20.8439413,83.8853483
Jeypore .,18.8589914,82.4810574
Moradabad District,28.8775702,78.4770246
Harihar,14.5182085,75.7645328
Kulathummal,8.4969157,77.0501052
T Narsipura,12.2116407,76.8843969
Iltifatganj Bazar,26.6083297,82.5504151
Nanguneri,8.4983936,77.634962
Pudukkottai,10.3802688,78.7840741
Baghpat,28.9442065,77.210548
Balkundra,23.639229,85.3084954
Thiriya Nizamat Khan,37.2811053,127.0507571
Elavanasurkottai,11.6780921,79.2326394
Aruppukottai,9.5215955,78.0706855
Bhandara District,21.1183887,79.2108973
Raybag,16.4893807,74.7555684
Selu,37.2811053,127.0507571
Bardoli,21.1297989,73.0863185
Sundarapandiapuram,8.9712612,77.379638
Jahangirabad,37.2811053,127.0507571
Barauni,25.4641591,85.9695937
Sunnipenta,16.075753,78.8903222
Yoi,37.2811053,127.0507571
Bhucho Mandi,30.2167605,75.0759314
Navimumbai,19.0162992,72.893075
Kolathur,13.1241306,80.1935173
Gyanpur,25.3363834,82.4590014
Etah District,27.5410762,78.1690376
Payal,37.2811053,127.0507571
Chiramanangad,10.6792325,76.0922162
Samastipur,25.8608685,85.7400131
Kottur,37.2811053,127.0507571
Bikapur,26.5975544,82.1226632
Baleshwar,37.2811053,127.0507571
Sawai Madhopur,26.0266806,76.2962698
Antah,37.2811053,127.0507571
Vikarabad District,14.9235898,74.6554053
Nalanda District,25.2064679,84.9810642
Nagal Chaudhry,37.2811053,127.0507571
Madhubni,26.3460241,86.0385828
Singhesar Asthan,25.9838454,86.7833251
Qasimpur Power House Colony,28.0125885,78.1199383
Barhi,24.3032516,85.4060789
Sambalpur District,21.5506334,83.7289528
Raipur Domana,32.7879574,74.7610152
Savarkundla,21.3368714,71.271314
Talaja,21.3553866,72.0145196
Manapparai,10.6129037,78.4118538
Hiramandalam,18.6727548,83.9406108
Corlim,15.4916912,73.908408
Cachar,24.7447435,92.2753268
Vengara,11.0508801,75.9630625
Kalpi,26.1231666,79.7286151
New Industrial Area Hattod,37.2811053,127.0507571
Hanwada,16.8099329,77.9129576
Satara,17.6745249,73.9482209
Kaithal District,29.8421043,76.1585901
Subarnapur District,20.8521031,83.2992769
Eyyal,10.6584673,76.1112642
Meerut O,37.2811053,127.0507571
Ghumarwin,31.4482111,76.662228
Ponneri,13.3317928,80.1693279
Sabarkantha District,23.8671806,72.5129914
Kotwali,37.2811053,127.0507571
Momrejpur,22.984694,87.8414903
Verna,37.2811053,127.0507571
Midnapore,22.4308946,87.2835439
Nehon,31.0391638,76.5624704
Khanapur,15.6378296,74.4948147
Theni District,9.8639299,77.1645211
Jagun,27.3813823,95.8906651
Srivilliputtur,9.516177,77.6113519
Chauparan,24.377867,85.2421902
Munnar,10.0806491,77.0466683
Villupuram,11.9334862,79.464454
Vindhya Nagar,24.0852299,82.6416626
Vayalar,37.2811053,127.0507571
Colva,15.2751325,73.9129908
Bandoan,22.8769854,86.495018
Amtala,23.928483,88.4318319
Sipcot Industrial Park Sriprumbudur,37.2811053,127.0507571
Nawabganj Gonda District,26.8580016,82.1251575
Muzaffar Pur,37.2811053,127.0507571
Bhiloda,23.7662118,73.2270669
Ntpc Simhadri Township,37.2811053,127.0507571
Duliajan,27.3557528,95.2941651
Goraya,31.1287481,75.7571589
Chandannagore,22.8616353,88.3509187
Kalyan Dombivli,19.2093305,73.0645624
Pataudi,28.3247881,76.7649701
Chinnamanur,9.8423301,77.3752275
Nagercoil,8.1713036,77.3800127
Deoni,37.2811053,127.0507571
Adilabad,19.6624246,78.4953182
Itinda,22.6619818,88.8746751
Anuppur District,23.033043,81.101245
Ambikapur,23.1264849,83.1080506
Ghughuli,27.0941468,83.7316722
Shishgarh,28.7294686,79.3047023
Kshidirpur,37.2811053,127.0507571
Ariyalur,11.1388744,79.0566782
Corbett,37.2811053,127.0507571
Ghatagaon,21.3973924,85.8664757
Mejia Thermal Power Township,37.2811053,127.0507571
Bassi Pathana,30.687598,76.3806866
Bikaner District,28.1076852,71.9124429
Uttar Bagdogra,26.6997897,88.3057803
Ordnance Factory Itarsi Township,37.2811053,127.0507571
South West District,37.2811053,127.0507571
Sant Kabir Nagar District,26.7544147,82.7478888
Palamu District,24.2182044,83.641302
Vijayawada Rural,13.5856943,74.7660403
Taranagar,28.6693474,75.0099451
Tripunithura,9.9265782,76.3213569
Sathupally,17.2075271,80.8086003
Sihora,23.4867961,80.0964068
Avadattur,11.6961547,77.8541577
Kandhamal District,20.1268692,83.4826608
Venkatagiri,13.9597281,79.552892
Medha,37.2811053,127.0507571
Kantabamsuguda,37.2811053,127.0507571
Borli Panchtan,18.1713234,72.9980126
Shahdara District,28.6824909,77.2321068
New Town,37.2811053,127.0507571
Jabalpur District,23.2150468,79.4072854
Wardha District And,20.8259241,78.0776218
Saraon,25.0357478,84.2599117
Neripperichal,37.2811053,127.0507571
Baikunthpur,23.2784393,82.5269144
Palacole,16.519525,81.6885715
Uttam Nagar,28.6212863,77.0355639
South Twenty Four Parganas District,22.0843799,88.0349845
Khunti,23.0709407,85.2448076
Kondagaon District,19.7091897,81.1217404
Joya,37.2811053,127.0507571
Alwarkurichi,8.7819397,77.3856347
Rajmahal,37.2811053,127.0507571
Uttar Kamakhyaguri,26.4659189,89.7031804
Banaganapalli,15.318477,78.1908561
Palamaner,13.1990883,78.7407769
Utekhol,18.2437843,73.2798504
Rampura,37.2811053,127.0507571
Umreth,22.6990037,73.095753
Betul,21.9069912,77.8653603
Attur,11.5926713,78.5869752
Kannadiparamba,11.937405,75.3952217
Pantheeramkavu,37.2811053,127.0507571
Mahboobnagar,16.7470415,77.980377
Sangli,16.8542704,74.5140597
Chandla,25.0732864,80.1843701
Nallur,9.4499296,80.2720784
Hargaon,27.7776568,80.7212962
Piduguralla,16.4802872,79.8775551
Tirupathi,13.6276132,79.2847143
Amb Industrial Area,37.2811053,127.0507571
Madayi,12.0281412,75.223276
Dari,37.2811053,127.0507571
Mandawa,28.0529974,75.1312383
Yadgir,16.7581925,77.1196459
Pattioam,37.2811053,127.0507571
Gosainganj Lucknow District,26.7672287,81.0915341
Chekonidhara,26.7103139,94.2034504
Sundarapandiam,9.6176108,77.6707523
Karoran,30.8029103,76.7959805
Channapatna,12.6510782,77.1858643
Edappal,10.7830824,75.9997549
Garhwal District,37.2811053,127.0507571
Koilkuntla,15.2305684,78.3080148
North Twenty Four Parganas District,22.6823617,88.1551184
Tiruvallur,13.1386901,79.8867098
Jamadoba,23.7199219,86.369806
Aralvaimozhi,8.2527948,77.5171064
Dharwad District,15.3694594,74.5814201
Chandannagor,22.8616353,88.3509187
Mundargi,15.2050593,75.8762382
Kantaberia,22.5189641,88.0689754
Vizianagaram District,18.4993604,82.8464115
Sikandarabad Industrial Area,17.4666053,78.5749602
Shikrapur,18.6924205,74.0952696
Tirupathur Sivaganga District,10.1102037,78.5789832
Suthaliya,24.0007572,77.1161158
Sanwer,22.9694226,75.809652
Gudiyatham,12.9462124,78.8481645
Kishni,27.0247432,79.2528176
Faizabad,26.7748675,82.0790817
Serchhip,23.3431079,92.81722
Julana,29.1268581,76.3798114
Jhagra Pt Iii,37.2811053,127.0507571
Bhiwandii,19.2817659,72.9917832
Laheriyasarai  (darbhanga),26.1257769,85.8828508
Jaggayyapet,16.8968295,80.0874484
Gopiganj,25.2855229,82.4166867
Bohari,37.2811053,127.0507571
Puttur,12.7648437,75.1842068
Purbi Champaran,26.6362106,84.3273266
Tadepalle,16.4777525,80.5699855
Hariana,31.6348395,75.8294821
Narasimhanaickenpalayam,11.1114627,76.9097011
Udayarpalayam,11.1827275,79.2842638
Jairampur,27.3513375,96.0080462
South Tweenty Four  Parganas,37.2811053,127.0507571
Malur Industrial Area,37.2811053,127.0507571
Khagaria District,25.4896687,86.2907578
Mukkudal,8.7393249,77.5118842
Dubrajpur,23.7965334,87.3601786
Jejuri Midc,18.2618144,74.1638087
Amathur,9.5654892,77.8426943
Ahemdabad,23.0199968,72.2995501
Ranaghat,23.1744217,88.5343409
Malvan,16.0618956,73.4569928
Kaveripattinam,12.4167556,78.2060185
Harohalli Industrial Area,37.2811053,127.0507571
Ratangarh,26.2905008,74.2443005
Bulandshahr District,28.3858535,77.4985093
Hansi,37.2811053,127.0507571
Likabali,37.2811053,127.0507571
Adilabad District,19.2920629,77.74748
Dapoli,17.7667095,73.1711629
Amloh,30.6117282,76.2242175
Neyyoor,8.213308,77.2962897
Sitamarhi District,26.5683955,85.2528821
Jyoti Khuria,27.3081497,78.9246052
Chirang District,26.634512,90.359865
Narendranagar,30.1603225,78.2773089
Kaushambi District,25.5321185,81.2058334
Kurekuppa,15.2230623,76.6163805
Devarkadra,16.6240662,77.8312521
Gudur,14.1413809,79.8254154
New Bongaigaon,26.5102785,90.5171564
Chowk,37.2811053,127.0507571
Vathirairuppu,9.6371345,77.6292966
Chavara,8.9890987,76.508729
Venmanad,10.5522841,76.0420847
Kathlal,22.889394,72.9620354
Mudgal,16.0070811,76.4217566
Azamgarh,26.056835,83.1195258
Roha Ashtami,18.446451,73.1098653
Iglas,27.7070095,77.9214762
Surendranagar District,22.8240049,71.0243247
Bobbili,18.5764065,83.3437495
Mancherial,18.8829392,79.3981264
Bicholim,15.5955562,73.9309679
Mangaldoi,26.4475905,91.995992
Khambhat,22.3210156,72.6140162
West Kameng District,27.3076012,91.8408405
New Delhi,28.5272181,77.0688997
Baduria,22.7323597,88.7369147
Bhim,37.2811053,127.0507571
Gudalur The Nilgiris District,11.5077079,76.4705435
Pandua,23.078978,88.2476608
Shevgaon,19.3480112,75.1995466
Fatehgarh Cantt,27.3732992,79.6245541
Bhisiana,30.2734029,74.7409326
Renapur,18.5290392,76.5860761
Lateri,24.0622633,77.3912101
Maddur,12.5866131,77.0243994
Pilani,28.3802773,75.5720761
Mailam,12.1237324,79.6099163
Kanina,37.2811053,127.0507571
Bilpahari,23.7191575,87.2279262
Kalambur,37.2811053,127.0507571
Thrikkovilvattom,8.9068711,76.651653
Lakarka,23.7896247,86.2957102
Panch Mahals District,22.6960462,73.3612074
Domchanch,24.4714078,85.6855513
Gandevi,20.8107391,72.9837439
Raghunathpur,23.5317613,86.6280979
Chhatrapur,19.3539019,84.9533694
Nallampatti,11.3401828,77.5312579
Rengali Dam Project Township,37.2811053,127.0507571
Unjha,23.8049694,72.3714976
Sangli District,17.1669801,73.644927
Veraval Rajkot District,22.1547041,70.7902553
Chakdaha,23.0631384,88.4863615
Haringhata,22.9593709,88.5590958
Sholingur,13.1089412,79.3909615
Puthenvelikkara,10.1851846,76.2121789
Bhokardan,20.2516673,75.7527708
Pattikonda,15.3969276,77.4856401
Dibai,28.2066616,78.2396935
Sendhwa,21.6948999,75.0576186
Rangpo,27.1771656,88.5185945
Kurattissery,9.3130752,76.4911764
Vijalpor,20.9373916,72.8929887
Maithon,23.7796745,86.7696487
Allhabad,37.2811053,127.0507571
Kolhapur District,16.5064331,73.6374314
Bharatpur,27.2197363,77.4583548
Thimmapur Karimnagar District,18.9182833,78.6142373
Nathampannai,10.4082095,78.7735064
Moga District,30.7926588,74.8819805
Ambhua,24.5475241,87.8412553
Pazhugal,8.3734691,77.1500244
South Tripura District,23.189617,91.287896
Sarang,37.2811053,127.0507571
Maharajganj,27.1494313,83.5360791
Morigaon,26.2519681,92.3221921
Mahishrekha,22.4808398,88.0006052
Bhabnan Bazar,37.2811053,127.0507571
Kothur,17.1481718,78.2836818
Kabeerdham District,22.1136738,80.6340487
Patur,20.461504,76.9235015
Naya Baradwar,22.0108183,82.802925
Goregaon,19.1527071,72.8436784
Keeripatti,11.5355132,78.4870578
Ratnagiri,16.9939267,73.2555566
Cherthala,9.6684646,76.3059609
Dhanaura,28.9572318,78.2447145
Vadodara,22.3220425,73.0330003
Thumbe,12.8738332,74.9744785
Bagbahara,21.0505378,82.3647807
Nagrota Bagwan,32.1081862,76.3649796
Moothakunnam,10.1876681,76.1713581
District Palwal,28.0557056,77.0581294
Puttaparthi,14.1609165,77.7540844
Purbi Singhbhum District,22.611877,85.9188144
Piplanarayanwar,21.5908632,78.7304305
Timkur,37.2811053,127.0507571
Naduvannur,11.48575,75.7690233
Sri Vishnu Cement Limited Dondapadu,37.2811053,127.0507571
Tuljapur,18.0073641,76.0553319
Valangaiman,10.8899082,79.376006
Draksharamam,16.7894866,82.045518
Begusarai District,25.5112444,85.566941
Koch Bihar District,26.2554501,88.7448353
Gaziabad,28.699581,77.254943
Dahod Gidc Phase 2,37.2811053,127.0507571
Khutar,28.2041154,80.2602857
Naldurg,17.8167264,76.2661885
Pappinisseri,11.9432699,75.3291457
Koratla,18.8239263,78.6929225
Jintur,19.6105619,76.6687689
Jyotiba Phule Nagar District,28.7530761,78.0671946
Dhone,15.4003106,77.8631164
Chamarajanagar District,11.9522596,76.5299268
Gangaikondan,8.8585227,77.7759799
Kalinagar,28.6130288,80.0617803
Kannur,11.8666438,75.3523533
Vizag,17.7384734,82.9823971
Bargachhia Haora District,22.6639175,88.1306398
Pindrai,22.5173668,80.0329104
Ahmedgarh,30.6786337,75.8096927
Pithampur Industrial Hub,37.2811053,127.0507571
Paschim Bardhaman,37.2811053,127.0507571
Trishundi Industrial Area,37.2811053,127.0507571
Dina Nagar,32.1324853,75.4505502
Pudupattinam,12.5025944,80.1373887
Koderama,37.2811053,127.0507571
Mamda,37.2811053,127.0507571
Mahasamund District,21.1973409,82.0837524
Riico Industrial Area Neemrana,27.9854076,76.3805481
Pentapadu,16.7810607,81.5162854
Dakshina Kannada District,12.8172419,74.6626376
Saharsa6,37.2811053,127.0507571
Sirsa District,29.6055225,74.3424616
Pandharkaoda,20.0215429,78.5347556
Annamalai Nagar,11.3902161,79.6995588
Ukai,37.2811053,127.0507571
Biloli,18.7774235,77.711047
Panniyannur,11.7270642,75.5495329
Sikka,22.428469,69.8107546
Farah,37.2811053,127.0507571
Byrnihat,26.049638,91.8584262
Thekkumkara,10.277103,76.1967923
Bhadravati,13.8429598,75.6704947
Phalodi,27.1239989,72.3278263
Karungal,8.2361628,77.2341226
Bijuri,23.2550826,82.0860237
Kozhenchery,9.3338962,76.688794
Swaroopganj,24.6549805,72.9092529
Mysuru,12.3106368,76.5656493
Manwath,19.3044035,76.478519
Murshidabad District,24.2874422,87.7199405
Tikari,37.2811053,127.0507571
Sardhana,29.142459,77.5955195
Harda District,22.2410947,76.5861739
Bhagta Bhai Ka,30.4774131,75.0733993
Cochin,9.9823428,76.1608472
Karanja,37.2811053,127.0507571
Pilibhit,28.6275585,79.7744912
Chandur Chandrapur District,19.7349416,79.1315554
Theni,10.0135214,77.4450509
Papanasam,37.2811053,127.0507571
Bagh,37.2811053,127.0507571
Dibrugarh District,27.3964746,94.4653775
Mudkhed,19.1474777,77.486143
Ringus,37.2811053,127.0507571
Dommara Nandyala,14.8646618,78.3559299
Kandhla,29.322353,77.2613042
Nandivaram Guduvancheri,12.8465055,80.0644709
Maharajaganj,27.1818111,82.972952
Perecherla,16.3263657,80.3289861
Changlang,27.135992,95.7214628
Kakkalur,13.126604,79.8990819
Rudauli,26.7463087,81.7315866
East Karbi Anglong District,26.0578181,91.9014699
Pondichery,11.9362931,79.7785085
Banagalore,37.2811053,127.0507571
Rs Mangalam,37.2811053,127.0507571
New Barrackpur,22.686998,88.4247034
Sutrapada,20.8438614,70.457125
Pazhanji,10.6897279,76.0469557
Moolakaraipatti,8.546088,77.7598991
Sitamau,24.0153422,75.3452253
Chamba,32.547347,76.1137129
Bhuj Gidc Phase 2,37.2811053,127.0507571
Pathankot District,32.3008706,75.3407524
Chirawa,28.2395384,75.6327794
Babina,25.2465033,78.4432838
Bapatla,15.911265,80.4382775
Chittanda,10.6859989,76.1974408
Virinchipuram,12.9177229,78.9949786
Chhaprauli,29.2090748,77.158334
Karthikappally,9.2588494,76.4423561
Tharangambadi,11.0281249,79.8428982
Attayampatti,11.5329528,78.0356309
Neyyattinkara,8.4007987,77.0666026
Byadgi,14.6772186,75.4660748
Hardoi District,27.3351168,79.7001623
Umarkhed,19.6032143,77.6704214
Kamrup District,26.156466,90.8132146
Duliajan Oil Town,27.3603489,95.3082454
Ambassa,23.92046,91.8322061
Banipur,22.7347098,88.1537952
Shamli,29.448414,77.2898482
Khelari,23.6399796,84.9558475
Loni Kalbhor,18.4815765,73.9923848
Dighwara,25.7477336,85.0050747
Mayurbhanj,21.9192147,85.2908329
Devarakonda,37.2811053,127.0507571
Barharwa,24.8568385,87.7680429
Dungargarh,28.1045511,73.9291186
Noida,28.5166817,77.2580446
Karamsad,22.5413193,72.8861994
Radhapur,37.2811053,127.0507571
Kottaiyur,10.1081973,78.7847936
Satna District,24.5755982,80.3121175
District Kangra,32.1029683,76.2551163
Bokajan,26.0211631,93.7387774
Taldi,37.2811053,127.0507571
Jajapur,20.8389948,86.2968732
Ramanagaram,12.714359,77.2668972
New Chandigarh,37.2811053,127.0507571
Hampi.,15.3331897,76.4545799
Nedumpura,10.7337861,76.2318605
Sahawar,27.7931482,78.8237285
Baruipur,22.3598638,88.4193284
Deoranian,28.6199605,79.4508555
West Siang District,28.1664408,94.6973395
Maslandapur,22.8552271,88.7411749
Parola,37.2811053,127.0507571
Komarapalayam,11.4381315,77.6864075
Khagaria,25.5100898,86.4407897
Sullia,12.5567677,75.371752
Forbesganj,26.3036615,87.2333759
Rupiabathan,26.4142839,91.3398903
Jharsuguda District,21.7993697,83.3531932
Huzurabad,18.2024694,79.3791317
Oachira,9.1272734,76.4890236
Khariar Road,20.8941966,82.4927328
Huzur Nagar,16.8994385,79.8562397
Kannanoor Tiruchirappalli District,10.914179,78.7285269
Indore,22.7239117,75.723764
Koyra,22.3531906,89.2762756
Vijayagopalapuram,11.1639288,78.8533181
Bankapura,14.9235955,75.2414873
Visnagar,23.6987816,72.5249574
Radhapuram,8.2676174,77.6815689
Rajgarh Dhar District,22.6746075,74.9385024
Gopalapuram,13.0500809,80.2488742
Jaynagar,26.5876995,86.1169604
Jharmajri Epip Phase 1,37.2811053,127.0507571
Mayyanad,8.8450922,76.6113051
Chikhal Kasa,37.2811053,127.0507571
Lakhnadon,22.6021651,79.5968914
Annavaram,17.2821753,82.3845204
Forbisganj,26.3036615,87.2333759
Ieeja,16.0162577,77.6497847
Pipar City,26.3914402,73.4979338
Bhalki,18.0478108,77.2033309
Vilathikulam,37.2811053,127.0507571
Dombivli,19.2093305,73.0645624
Asifabad,19.3654852,79.2741142
Mudalgi,16.3371446,74.9212855
Harharia Chak,24.1490148,88.4635452
Polasara,19.6948774,84.7920194
Parasi,37.2811053,127.0507571
Vaijapur,19.9244688,74.6990652
Samba,37.2811053,127.0507571
South Tweenty Four Parganas,37.2811053,127.0507571
Shivamogga,13.9321989,75.4946745
Chandaur,23.803689,86.3175204
Mahesana,23.5898681,72.3479594
Pardi,37.2811053,127.0507571
Jetpur Navagadh,21.7666962,70.6084327
Budhlada,29.9251074,75.536928
Rajkot District,22.0561057,69.6515538
Periapattinam,9.2673516,78.8894533
Dakshin Bastar Dantewada District,18.7881212,81.1803662
Thiruppanandal,11.0904945,79.4482433
Cuddalore,11.7508628,79.7316556
Mukhiguda,19.4404483,82.8310344
Kankinara,37.2811053,127.0507571
Fatehabad,29.5049046,75.4204831
Totu,37.2811053,127.0507571
Kharod,21.7452678,82.570024
Ziro,27.5457675,93.8007517
Nyotini,37.2811053,127.0507571
Dongargarh,21.1869081,80.7252638
Viratnagar,27.4210156,76.1433005
Chhutmalpur,30.0341753,77.742349
Ranipettai,12.9534546,79.2815917
Malpur,23.3605076,73.4577896
Sangole,17.4372729,75.1725553
Ranchi District,23.2562905,84.8238354
Sakhanu,27.9443088,79.2139954
Kolar,13.1297361,78.0910557
Mohol,17.8085234,75.6038719
Chakia,26.4148445,85.0312828
Chandameta Butaria,22.1850163,78.7113953
Vellalur,10.978797,76.9958226
Kamuthi,9.4070125,78.3590612
Kendujhar District,21.592507,85.2144629
Samdhan,27.1361842,79.6936951
Barpeta District,26.4363504,90.6821876
Kangayampalayam,11.0231122,77.1466922
Subalaya,20.8934592,84.1501353
Bihta Patna District,25.5643147,84.8505662
Beed,18.9964669,75.7141243
Batika,37.2811053,127.0507571
Chendamangalam,10.1683857,76.2206847
Ghoti Budruk,19.7181511,73.6204146
Daryapur Banosa,20.9198863,77.3062505
Khandala Satara,18.0540037,74.0092277
Thakurganj,26.4286573,88.1172394
North Barrackpur,22.7894712,88.3261454
Maloud,30.6360607,75.9196814
Mawana,29.1018122,77.9023789
Dighirpar,22.3055889,88.6521147
Kachhauna Patseni,27.1598239,80.3335304
Barahiya,25.2810989,86.003208
Pandalkudi,9.390237,78.0860136
Simrol,22.5395516,75.9070515
Alwar,27.5546242,76.5763355
English Bazar,37.2811053,127.0507571
Gangapur,37.2811053,127.0507571
Nelamangala,13.0973002,77.3681302
Kharghar,19.0646986,73.0245931
Meliaputti,18.7712568,84.1656804
Goredi Chancha,26.8831139,74.3055053
Thirunelveli District,8.7773261,76.9998326
Dhule District,21.1328432,73.9641323
Asaripallam,8.1741099,77.3720526
Panna,24.713804,80.1477253
Kampur Town,26.1732397,92.6526852
Somandepalle,14.0113595,77.5969827
Dhilwan,31.5128836,75.3222225
Barrackpore,22.7527062,88.3341462
Udham Singh Nagar District,29.0437115,78.8365639
Manali,32.2394177,77.1696102
Jajapur Road,20.9476679,86.0878067
Naldanga,24.5087186,88.911321
Amalapuram,16.5738384,81.9775337
Majhihara,37.2811053,127.0507571
Udhampur,32.9158335,75.1337831
Umerkhed,19.6032143,77.6704214
Mettupalayam,11.2972843,76.916313
Mejia,37.2811053,127.0507571
Banka,37.2811053,127.0507571
Mul,37.2811053,127.0507571
Thazhakara,9.2516179,76.5478095
Samathur,10.6102832,77.0056998
Puthukkad,10.416705,76.2425377
Sambhal,28.5850799,78.538813
Bhupalpalle,37.2811053,127.0507571
Jetia,37.2811053,127.0507571
Bhargain,27.6010687,79.1400576
Surala,37.2811053,127.0507571
Karwi,25.2152634,80.9030904
Tendukheda District Damoh,23.3908213,79.5289242
Pusaur,21.7565,83.3730233
Koraput District,18.7225937,82.1888879
Khusrupur,25.4801723,85.3787384
Sattenpalli,16.3965681,80.1320713
Charaideo District,37.2811053,127.0507571
Kachhla,27.9377371,78.8565891
Patna.,25.6079707,85.0029573
Mulagumudu,8.265271,77.2825258
Lakhimpur,27.942657,80.7445598
Hussainabad,37.2811053,127.0507571
Dharapadavedu,12.9690694,79.1320866
Nimbhore Budruk,21.1619091,75.9392353
Rani Sagar Riico,37.2811053,127.0507571
Chengappalli,37.2811053,127.0507571
Doraha,30.7995441,76.0148315
Kumily,9.6031765,77.1466262
Kurasia,37.2811053,127.0507571
Kangra District,32.0710484,75.2165853
Kaimur Bhabua District,37.2811053,127.0507571
Katihar District,25.5421388,87.0793619
Ramannapeta,17.2888765,79.0822667
Fazilka,30.4019181,73.9943919
Budgam,33.8967129,74.3908732
Satrampadu,16.7073643,81.0620333
Naduvattom,10.8807631,75.9865735
Madurai District,9.9244581,77.3966649
Kotma,23.2048255,81.9697288
Un,37.2811053,127.0507571
The Nilgiris,11.4479606,76.063578
Mursan,27.5696397,77.9293252
Masat South Twenty Four Parganas District,22.2574148,88.2357452
Venkatapura,37.2811053,127.0507571
Lido Town,37.2811053,127.0507571
Sara Industrial Estate,37.2811053,127.0507571
Barrackpur,22.7527062,88.3341462
Tiruchirappall,37.2811053,127.0507571
Dhaniakhali,22.965918,88.074113
Jhanjharpur,26.266054,86.2708499
Koothuparamba,11.8312104,75.5579749
Natrampalli,12.5889073,78.4652989
Pirayiri,10.7839633,76.5774247
Balimela,18.2713477,82.1065813
Patan Midc,37.2811053,127.0507571
Ichhawar,23.0271718,77.0145469
Paschim Medini Pur,22.3572007,86.667024
Shahpur Sagar District,23.8942149,79.0460622
Chicalim,15.3941833,73.8236725
Ghatshila,22.5800718,86.436789
Narasaraopet,16.2330324,80.0154002
Saltlake,40.6667311,-112.4687311
Sanswadi,18.6669857,74.0813201
Walajabad,12.7958569,79.8102236
Hingna,21.0725867,78.9508008
Namrup,27.182262,95.309915
Pakaur,24.6370356,87.8073316
Gandai,21.6685954,81.0901738
Thane West,19.2378102,72.9309044
Bhilwara District,25.483858,73.6166703
Thakurdwara,29.1911108,78.8524935
Topchanchi,23.9055983,86.1722627
Vita,37.2811053,127.0507571
North West,37.2811053,127.0507571
Sidco Industrial Estate Gowribidanur,37.2811053,127.0507571
Sahibzada Ajit Singh Nagar District,30.6476695,76.4539905
Sonamukhi,23.3019597,87.3845591
Ramgarh District,23.6927379,85.2657876
Udupi District,13.5194593,74.6150498
Mahuva,21.0873709,71.7421387
Didwana,27.4033751,74.5398699
East Khasi Hills District,25.4214925,91.1953724
Kodala,19.6268655,84.9324044
Athiyannur,8.3776035,77.0469841
Pal Chaurai,22.2020962,78.6301503
Uppala,37.2811053,127.0507571
Darjiling,27.0331906,88.2296555
Rewari,28.1993329,76.5851657
Krishnanagar,23.4016752,88.4633082
Pathan Midc,37.2811053,127.0507571
Fatehgarh,27.3690769,79.6063541
Bihka,37.2811053,127.0507571
Tnpl Pugalur,11.056788,77.9859459
Sankarnagar,8.795008,77.7182273
Pathapatnam,18.7452553,84.0757897
Dhampur,29.3036874,78.493881
Chak Enayetnagar,22.3704549,88.2895776
Sidco Industrial Estate Asnoor,37.2811053,127.0507571
Bamun Sualkuchi,37.2811053,127.0507571
Hijuli,23.6778348,86.8102553
Gundlupet,11.8101848,76.6733478
"Kanchipuram,",12.8298467,79.6768836
Pippara,16.7130058,81.5371519
Kondapalle,17.5605169,82.2174005
Muthuthala,10.8387432,76.1479568
Balusseri,11.4402164,75.7835228
Medinipur,22.4308946,87.2835439
Koath,25.326222,84.2490863
Sakleshpur,12.943396,75.7754945
Narsipatnam,17.668414,82.5947319
Ponmundam,10.963087,75.9307056
Gajwel,17.8459902,78.6638997
Century Cement Baikunth,37.2811053,127.0507571
Rae Bareli District,37.2811053,127.0507571
Motihari I,37.2811053,127.0507571
Olavanna,11.2230676,75.8254942
Pondura,37.2811053,127.0507571
Siddhaur,26.762949,81.3790403
Silvassa,20.2665228,72.9702252
Suriyampalayam,11.3954619,77.6521939
Cumbum,9.7355063,77.2671271
Garhwa District,24.0507797,83.1399367
Banjar,37.2811053,127.0507571
Becharaji,23.5019831,72.0369688
Bhagwant Nagar,26.2246872,80.7481222
Gurdaspur District,31.9031979,74.6876911
Nellikuppam,11.7752764,79.6526556
Kukshi,22.206546,74.7381625
Tiruvarur,10.7674347,79.6004042
Mumbai Suburban,19.1312319,72.7393788
Firozabad District,27.1932965,78.2149891
Bellary,15.1357583,76.8365523
Takalghat,20.9150173,78.9421972
Borawar,27.0247447,74.6511484
Emlikheda Industrial Area,37.2811053,127.0507571
Magrahat,22.2425197,88.3650703
Sohagi,24.9822652,81.684568
Mahwa,37.2811053,127.0507571
Saran District,25.9198931,84.242498
Nabarangapur,19.2302112,82.5364252
Dewa,37.2811053,127.0507571
Umarkote,19.660733,82.1959732
Desamangalam,10.7494839,76.2180249
Perambalur District,11.285389,78.6207899
Pamur,15.095535,79.4017123
Gajsinghpur,29.6588748,73.4316408
Sangat,37.2811053,127.0507571
Moonniyur,11.0739481,75.8595374
Chennai District,13.0390536,80.177373
Kamshet,37.2811053,127.0507571
Thrippunithura,9.9265782,76.3213569
Ashti Wardha District,21.2042813,78.1582505
Rangabhita,25.2081798,88.1792452
District East Karbi Anglong.,26.0578181,91.9014699
Shahpur Betul District,22.1982914,77.8908346
Dhola,37.2811053,127.0507571
Maliya,37.2811053,127.0507571
Longowal,30.1966225,75.6618546
Shirawad Industrial Area,37.2811053,127.0507571
Sangameshwar,17.1876783,73.5436927
Nabinagar,37.2811053,127.0507571
Patadi,23.1919256,71.7787455
Perakam,10.6023513,76.0136653
Mecheda,22.4098083,87.8582546
Kalinga Nagar Industrial Area,37.2811053,127.0507571
New Mumbai,19.0162992,72.893075
Saranga,37.2811053,127.0507571
Bemetra,21.7130974,81.5267944
Sepahijala District,23.5361691,91.0835831
Ettimadai,10.897663,76.8834786
Dhanyakuria,37.2811053,127.0507571
Gangoh,29.7794808,77.2447871
Malappuram,11.0618597,76.0333722
Gaya District,24.6655479,84.285972
Gwalior,26.2141389,78.1208586
Udaipur City,24.60827,73.6370181
Bolpur,23.6715416,87.6529718
Sauli Khad Industrial Area,37.2811053,127.0507571
Niz Katigorah Pt Iii,37.2811053,127.0507571
Meppayyur,11.5379469,75.6891335
Balaghat District,21.8563934,79.1564374
Vaduj,17.5947952,74.4469604
Chikhali,37.2811053,127.0507571
Purba Burdhaman,37.2811053,127.0507571
Bhadarsa,26.6408607,82.1142625
Bori Parbhani District,19.5009316,76.6974205
Motipur,26.2554922,85.1452716
Kottayam District,9.594624,76.4855731
Kurnool(dt),37.2811053,127.0507571
Krishna District,16.428509,79.6600738
Domjur,22.6254437,88.1929859
Kataiya,26.5739278,86.6818907
Sao Jose De Areal,15.2556375,73.9934133
Sirhind,30.6184854,76.3650143
Gurdaspur,32.0426525,75.373396
Dhamua,37.2811053,127.0507571
Achampet,16.3995189,78.6202346
Suthana Barsola,28.3637263,80.9582354
Chanpatia,26.9477222,84.5277357
Chirakkal,11.9133671,75.3425107
Kumarbagh,26.8762566,84.4949482
Berhmpur,19.3082318,84.7382165
Raiganj,25.6117845,88.0998085
Ekambarakuppam,13.3159318,79.5582354
Charibatia,20.5581999,85.9212602
Purba Champaran District,26.6362106,84.3273266
Panchkula,30.7024862,76.7922876
Mandhar Industrial Area,37.2811053,127.0507571
Arsikere,13.313973,76.2369136
Shajapur District,23.4128304,76.0263307
Sonepur,20.8439413,83.8853483
Shimla,31.0782005,77.088981
Thrikkaruva,8.9452021,76.5916908
Sheoganj,25.1395099,73.0417547
Koch Behar,26.3299506,89.3765903
Birpara Tea Garden,26.7013207,89.1008505
Phulbani,20.4730081,84.1999047
Halwara,30.7395593,75.6006783
Thekkumbhagom,37.2811053,127.0507571
Edakalinadu,12.2977196,79.934213
Allipura,13.4882716,77.4396441
Petlad,22.481655,72.7721494
Asangaon,37.2811053,127.0507571
Bhagirathpur,24.088499,88.4913218
Dakshin Jhapardaha,22.6250548,88.2024292
Ballary,15.1357583,76.8365523
Manoharthana,24.236252,76.795721
Desaiganj,20.6079564,79.9373605
Vadodara District,22.314687,72.636649
Balod District,20.7300974,80.6008267
Nagpur,21.1610282,78.9324241
Sankrial,22.546557,88.2006593
Banur,30.5633207,76.6936682
Yadadri District,37.2811053,127.0507571
Kandamkunnu,11.8742031,75.5639172
Nivi,37.2811053,127.0507571
Mariani,37.2811053,127.0507571
Tonk District,26.1194364,75.1521702
Darwha,20.311868,77.7555655
Anekal,12.7211225,77.684234
Thimmapur,17.7592723,79.4556142
Durllabhganj,22.7350838,87.3343158
Madurai,9.9176385,78.0527831
Jmmu,32.7145963,74.719879
Georai,19.2595657,75.7323479
Ara,37.2811053,127.0507571
Nanpara,27.8654715,81.4853115
Kundalwadi,18.8094372,77.7605652
Jind,29.313249,76.2502647
Isri,37.2811053,127.0507571
Haldia,22.061828,87.953632
Indapur Midc,37.2811053,127.0507571
Gurh,37.2811053,127.0507571
Rayachoti,14.0498723,78.7329409
Nanmanda,11.4209121,75.824697
Gothra,37.2811053,127.0507571
Guwahati,26.1429809,91.5627973
Vadakkanandal,11.7747079,78.8123463
Pochampalle,37.2811053,127.0507571
Periya Negamam,10.7433538,77.0989178
Solgohalia,22.3932241,88.4886553
Nalamangla,13.0973002,77.3681302
Lohit District,27.9100792,96.1001562
Nagaur District,27.0542153,73.1063735
Lakhnapur,26.6718248,80.6408803
Bokaro District,23.696911,85.4894762
Mahad Midc,18.0975423,73.458994
Mallar,37.2811053,127.0507571
Makardaha,22.6179261,88.2244983
Gauripur,26.0860395,89.9540801
Urappakkam,12.8646629,80.0546684
Pulpally,11.7915445,76.1441391
Mamidipalle,17.6014393,78.1336903
Tapookra,28.1069598,76.8042688
Deoghar,24.4739933,86.6651875
Thurayur,11.5254833,75.6349136
Pinahat,26.8834925,78.363161
Tovarankurichi,37.2811053,127.0507571
Bandhbahal,21.7537141,83.8623504
Labhpur,37.2811053,127.0507571
Bisanda Buzurg,25.3999489,80.5946004
Dhalavoipuram,9.3938759,77.4861431
Bundi District,25.4373767,75.245529
Chak Kanthalia,22.76128,88.3855126
Rajam,37.2811053,127.0507571
Kharach,21.4439,72.8870557
Swaimadhopur,26.0266806,76.2962698
Bhabhua,25.0409123,83.5882054
Arumbavur,11.3807322,78.7258816
Mulund,37.2811053,127.0507571
Belgum District,37.2811053,127.0507571
Talod,23.3505891,72.9454256
Pichhore Gwalior District,25.964659,78.3654804
Gadchiroli District,19.755334,79.200223
Bansberia,22.9577095,88.3764121
Malhargarh,24.2841318,74.979329
Iffco Census Village,37.2811053,127.0507571
Bhangar Raghunathpuro,37.2811053,127.0507571
Sitapur District,27.5021672,80.2986376
Karikkad,10.6948992,76.0731823
Kadamakkudy,10.0547044,76.2424671
Pillaiarkuppam,37.2811053,127.0507571
Depalpur,30.6737445,73.6187025
Repalle,16.0191679,80.8142279
Bhuragaon,26.4034139,92.2284253
Pettai,37.2811053,127.0507571
Nalco Nagar,20.8546915,85.1370855
Silwani,23.3036191,78.4265502
Kottamkara,8.9308269,76.6579549
Howly,26.4215959,90.976336
Kamayagoundanpatti,9.7380634,77.3097396
Kesrisinghpur,29.9457057,73.6113476
Khammam District,17.6959854,79.4382496
Naubaisa Gaon,26.777884,94.1846154
Anand Nagar,37.2811053,127.0507571
Dhar District,22.5768631,74.5328393
Kirloskarwadi,17.0852761,74.4154
Mellahalli,37.2811053,127.0507571
Sawer,37.2811053,127.0507571
Talala,21.0575196,70.5228843
Umrangso,25.5125045,92.7180003
Raya,37.2811053,127.0507571
Nabagram,37.2811053,127.0507571
Raha,37.2811053,127.0507571
Uppiliapuram,11.2662115,78.5091591
Pothatturpettai,13.2868387,79.4745183
Shahdol District,23.6523425,80.9346211
Metapally,18.8492169,78.608227
Visanagar,23.6987816,72.5249574
Sanganer,26.8105605,75.7392623
Neemuch District,24.6285015,74.5973727
Bhandara,21.1770022,79.6183323
Vanganur,13.2009609,79.4333264
Banera,37.2811053,127.0507571
Oragadam,12.84186,79.9272582
Itwa,27.327469,82.6884604
Brahmakulam,10.5811563,76.060447
Veparala,14.8566354,78.3395308
Achhnera,27.1750072,77.7364804
Rewalsar,31.6328304,76.8289536
Sheopur,25.6701074,76.6791842
Rampurhat,24.1817561,87.7637241
Jamjodhpur,21.907976,70.0092162
Raval,41.3781402,2.164334
Enkakkad,10.6636752,76.2485693
Amraoti,20.9303838,77.7412404
Thadikombu,10.4467919,77.9471826
Baran,37.2811053,127.0507571
Virajpet,12.2043949,75.7872039
Tallada,37.2811053,127.0507571
Aec Complex,37.2811053,127.0507571
Ranikhet,29.6420326,79.4195436
Anklesvar,21.626748,72.9494156
Ojhar Nashik,20.1022689,73.8985794
Lahar,37.2811053,127.0507571
Vadakkekad,10.6614933,76.0029459
Haludpukhur,22.600654,86.1162854
Uklanamandi,29.5163317,75.8601975
Shankargarh,25.1933597,81.6047852
Shyamnagar,22.3382843,89.08792
Kovilpatti,9.1702371,77.8376191
Ramanathapuram,9.367826,78.8082036
Bewar,25.7684689,79.9109004
Kakati,37.2811053,127.0507571
Mandideep,23.0979099,77.5020166
Saluru,18.5204732,83.1887621
Panchpara,22.5632768,88.2633921
Hukeri,16.2332573,74.5877911
Garhshankar,31.2155104,76.1254701
Kadikkad,10.6767415,75.9584768
District Solan,31.0561372,76.6495957
Rewari District,28.2130796,76.3157244
Lonavla,18.7573528,73.3416824
Pimpri Chinchwad,18.6406433,73.6520582
Bada Malhera,24.5692096,79.2697043
Dafahat,24.6198289,87.9862004
Barauni Thremal Power Station Township,37.2811053,127.0507571
Thaikattussery,9.7710349,76.3270036
Manushpur,22.9290891,88.3547355
Sakti,37.2811053,127.0507571
Mehsana,23.5898681,72.3479594
Farrukhabad,27.3812108,79.5570975
Nedumpana,8.9094615,76.6854823
Saurikh,27.0311656,79.4789385
District Araria,26.1316813,87.4104446
Sattenapalle,16.3965681,80.1320713
Athni,16.7261312,75.0435465
Thanniyam,10.4092421,76.1142653
Wbiidc Growth Centre Uluberia,37.2811053,127.0507571
Kallur Thekkummuri,10.2327819,76.2988998
Rajura,19.778212,79.3465232
Muzaffarnagar,29.4751211,77.6738383
Nilambur,11.2806832,76.1987535
Gardhiwala,31.7420365,75.7462635
Chanchol,37.2811053,127.0507571
Hindupur,13.8202595,77.462067
Pathar,37.2811053,127.0507571
Ramdurga,15.9486612,75.2885341
Lakhtar,37.2811053,127.0507571
Chandwad,20.3291306,74.2264212
Mathabhanga,26.3429239,89.2057388
Mundwa,27.0658663,73.8082443
Amanpur,27.709936,78.7306344
Madhepura District,25.7788111,86.5922983
Ulliyeri,11.4461834,75.7224387
Dhubri,26.0257411,89.9584362
Gurgoan,28.4228859,76.8496963
Kooraikundu,9.5652966,77.9347914
Portblair,11.618349,92.6520041
Navi Mumabi,37.2811053,127.0507571
Tambaur Cum Ahmadabad,27.7180139,81.1505954
Ganapuram,37.2811053,127.0507571
Kanchrapara,22.9375315,88.4006565
Devikapuram,12.4976819,79.2442667
Ettayapuram,9.1482132,77.980624
Ambaranth,37.2811053,127.0507571
Kalaiyar Koil,9.8468117,78.6146877
Buldana,20.5282242,76.1515289
Beas,37.2811053,127.0507571
Nuh,37.2811053,127.0507571
Nahira,37.2811053,127.0507571
Madhavnagar,16.8884154,74.5809202
Jalna District,19.914447,75.4920205
Jhalda,23.333044,86.2175304
Akodia,23.3848083,76.5845774
Rura,37.2811053,127.0507571
Balasinor,22.9544687,73.3155348
Chandur Amravati District,20.8171515,77.9461604
Sandi,37.2811053,127.0507571
Riico Industrial Area Rajgarh,37.2811053,127.0507571
Kerakat,25.6389524,82.8979825
Sindhudurg District,16.1309783,73.203481
Mumbai,19.0821978,72.7411
Chhindwara District,22.138253,78.2669537
Poolacode,11.2925439,75.9007038
Kalladaikurichi,37.2811053,127.0507571
Gothan,37.2811053,127.0507571
Parasuvaikkal,8.3708994,77.1334003
Latur District,18.3490059,76.2124385
Chhoti Sadri,24.3754917,74.6589869
Imphal,24.8061343,93.8663696
Gargoti,37.2811053,127.0507571
Sewalkhas,37.2811053,127.0507571
Nagamangala,12.8283299,76.7492437
Fatehpur,25.9227617,80.7814402
Babain,30.074101,76.9751197
Sanjay Gandhi Thermal Power Station Township,37.2811053,127.0507571
Bangalore District,37.2811053,127.0507571
Kamrup Metropolitan,26.0446587,91.2117775
Tanda Ambedkar Nagar District,26.5455496,82.6332801
Mudalipalayam Sidco,11.1226166,77.4085729
Kollur,13.864066,74.7922354
Bisalpur,37.2811053,127.0507571
Gudivada Krishna District,16.4299302,80.9569909
Choornikkara,10.0805398,76.3280722
Basudebpur Murshidabad District,24.4546549,88.0579876
Idukki District,9.813892,76.4602596
Nandigama,16.773028,80.276258
Kinwat,19.621393,78.182144
Mannanchery,9.5676867,76.3309275
Handia,37.2811053,127.0507571
Jaleswar,21.8018458,87.1845329
Barbil,22.1108149,85.3419216
Jogabani,26.3984506,87.2479703
Nagaur,27.206969,73.6895026
Maruthancode,8.3370805,77.1868515
Aversa,40.9705508,14.187579
Pakri Dayal,26.5609759,85.044319
Nagaon,26.3455499,92.6542168
Bihar Sharif,25.2024278,85.4876073
Hindalco Industries Ltd,37.2811053,127.0507571
Tola Pairamatihana,24.6720122,86.3381383
Belgaum,15.8667018,74.4384
Katghora,22.5064098,82.5279663
Bathinda,30.2087515,74.8886466
Wadrafnagar,23.758514,83.1844209
Jagtial District,15.0078523,74.2498604
Koilwar,25.5792588,84.783275
Aygudi,8.9998613,77.3340262
Sonatala,25.0476118,89.4631284
Bangalore.,12.9538477,77.3507442
Thenhippalam,11.1341816,75.8709624
Kopargoan,19.8924934,74.4491584
Badlapur,37.2811053,127.0507571
Koradi,21.238339,79.0921104
Salempur,26.2980879,83.9042614
Ammoor,12.975432,79.3582392
Chohal,31.5933774,75.9556531
Kanaipur,22.6923478,88.3048544
Muthur,11.0443202,77.7174512
Kadipur,26.1660014,82.362796
Puri,19.8091763,85.7864636
Buxar,25.5700002,83.9433783
Jagannathpur,24.7713377,91.5253181
Bhongir,17.5046863,78.8751204
Gida Gorakhpur,37.2811053,127.0507571
Shirur Anantpal,18.3368741,76.8004089
Nerul Navi Mumbai,19.0351106,73.0034853
Vadi,37.2811053,127.0507571
Jashpur,22.893284,84.1213404
Cheruthazham,12.080227,75.2450568
Shahjahanpur Industrial Area,37.2811053,127.0507571
Neemuch,24.4678335,74.8020862
Lapanga,21.7248141,84.0082098
Manora,37.2811053,127.0507571
Coonoor,11.3497423,76.7543127
Bhachau,23.2942427,70.3248903
Tittagudi,11.4081099,79.0999946
Asansol.,23.6834541,86.8541898
Samuktala,37.2811053,127.0507571
Yelbarga,15.6134191,76.0030974
Panachikkad,9.5367642,76.5412567
Turuvekere,13.1608113,76.6599112
Dhorimanna,25.1963965,71.4222906
Mount Abu,24.5932849,72.6857471
Baripada,21.9325962,86.686332
Dharmaram Warangal District,17.9592665,79.6486281
Lakkampatti,11.4666599,77.371246
Baripara,26.5625997,81.8645002
Ambasamudram,8.7124228,77.4159983
Chelambra,11.1623135,75.8747255
Coochbehar,26.3299506,89.3765903
Barki Saraiya,37.2811053,127.0507571
Wayanad,11.7141243,75.8289888
Abdu Rahiman Nagar,11.0700039,75.9214924
Panoor,11.7581439,75.5737177
Mainpuri City,27.228736,78.9535262
Narayanpur District,19.7236577,81.2264729
Viswanatham,37.2811053,127.0507571
Suriyawan,25.4606683,82.3946604
Yavatmal,20.3884338,78.0838673
Jagtial. District,15.0078523,74.2498604
Narsimhapur District,22.9328811,78.4831399
Namli,37.2811053,127.0507571
Yamunanagar District,30.1987722,77.0576102
Yerwada,18.5594562,73.8650323
Paippad,9.4232372,76.5674397
Kedla,23.7835358,85.5880793
Thiruvalla,9.377424,76.5362334
Sullurupet,13.7011586,80.0076899
Oorakam,11.0717223,75.97948
Kherdi,17.5152867,73.5388463
Diphu,25.8384238,93.3903129
Sivsagar,26.9877482,94.6254815
Khanpur,28.6461419,70.6228176
Namkkal,11.2155269,78.1340782
Teghra,25.4880995,85.9317631
Dombivali,19.2093305,73.0645624
Barotiwala Industrial Area,37.2811053,127.0507571
Cuttack,20.4630513,85.7276598
Bedi,37.2811053,127.0507571
Mahisagar District,23.1898527,73.0755553
Teegalpahad,37.2811053,127.0507571
Kalwan Bk,20.4838341,74.0153953
Manethi,28.1629556,76.3753305
Tvs Plant Hosur,37.2811053,127.0507571
Badhni Kalan,30.6808177,75.2832233
Rairangpur,22.2691587,86.1565499
Chippada Pharma Sez,37.2811053,127.0507571
Khardaha,22.7053112,88.3445405
Nrisinghapur,23.2300462,88.373918
Thorrur,17.5827469,79.6398924
V. Pudur,9.2687537,78.1047013
Vikarabad,17.3401166,77.8575143
Triprangode,10.8489493,75.9121071
Indergarh,25.7302453,76.1820316
Nautanwa,27.4293427,83.4061652
Gohpur,26.8883089,93.5831731
Muthukulam,9.2150923,76.4410686
Chirgaon,25.5736753,78.7956366
Aranthangi,10.1715907,78.9890234
Vyara,21.1120687,73.3617933
Jharia,23.7413097,86.3979494
Hubbathala,11.338231,76.7476843
Jawhar,37.2811053,127.0507571
Jammalamadugu,14.8480647,78.3473247
Kushalgarh,23.1959595,74.4331012
Kashipur,29.2122905,78.9219034
Gharghoda,22.1737253,83.3405766
Kurinjipdi,37.2811053,127.0507571
Chandernagore,22.8616353,88.3509187
Jhumri Tilaiya,24.4345933,85.4964954
Rau,37.2811053,127.0507571
Thuraiyur,11.1420652,78.5800422
Patna Sadar,25.5985513,85.2184738
Jaggaiahpet,16.8968295,80.0874484
Gairatganj,23.4103353,78.2006405
Tihu,26.4735113,91.2595009
Bijni,26.5007589,90.6644147
Thuvakudi,10.7520704,78.8104783
Mannar,8.9955471,79.8506062
Kandlakoya,17.5166385,78.4869506
Ghosia Bazar,25.2701998,82.5413102
Khandala,18.7695091,73.3642819
Kalavad,22.2057345,70.372801
Karauli District,26.5136,76.3647707
Jammu,32.7145963,74.719879
Babarpur Ajitmal,26.5600589,79.3014555
Dharampur,20.5400098,73.1694468
Vikravandi,12.0392258,79.5355518
Somnath,37.2811053,127.0507571
Valia,37.2811053,127.0507571
Malavalli,12.3806729,77.0275971
Bavla,22.8325189,72.327674
Vazhakkala,10.0172737,76.324065
K Madapur,37.2811053,127.0507571
Junagarh,19.8646498,82.9214572
Viralimalai,10.6029073,78.5386741
Dalmau,37.2811053,127.0507571
Rampur Karkhana,26.5718097,83.8107952
Kashimnagar,24.4353452,87.9183751
Sojitra,22.5374103,72.7110613
Devanahalli,13.2420805,77.6960128
Sripur,37.2811053,127.0507571
Ashta,37.2811053,127.0507571
Thalakkulathur,37.2811053,127.0507571
Sikar,27.6094501,75.0726891
Chaurai Khas,22.0515008,79.2408765
Ujjian,23.1689948,75.7622009
Kokrajhar District,26.6038657,89.5824624
Uthangarai,12.269893,78.4998458
Hugli,37.2811053,127.0507571
Parangipettai,11.5055394,79.738867
Singnapur Kopargaon,19.9006841,74.4854833
Jagdalpur,19.0821789,81.9413215
Bamanpukur,22.5118641,88.6825454
Mira Road East  Dist Thane,19.2821626,72.841517
Pandamangalam,37.2811053,127.0507571
Birwadi,18.0994977,73.4981704
Chharra Rafatpur,27.9254107,78.3775376
Samudragarh,23.3443633,88.3120106
Bengalur,12.9538477,77.3507442
Bardhaman,23.2462168,87.8312296
Bakhtiyarpur,25.4568749,85.5187581
Hosapete,15.2649093,76.3447446
Pala,37.2811053,127.0507571
Rasipuram,11.458957,78.0708966
Hdkote,12.0859675,76.3212383
Washi,37.2811053,127.0507571
Anand,37.2811053,127.0507571
Arambag,22.8827236,87.7497439
Amrl Sez Vaigaikulam,37.2811053,127.0507571
Bargarh District,21.2399793,82.7300074
Aurangabad District,20.0172905,74.1961098
Chandil,22.960427,86.0488699
Vasai Virar,19.3782072,72.7569339
Mathura District,27.6078487,77.3572341
Aravakurichi,10.7754275,77.8990744
Naregal,15.5753777,75.7941198
Jalalabad Muzaffarnagar District,37.2811053,127.0507571
Hasayan,27.6082065,78.2660089
Ujjain,23.1689948,75.7622009
Peddapalli,14.5929199,74.3393552
Tallarevu,16.7805227,82.2224521
Rangareddy,17.2738332,76.9839376
Jafarpur,22.3209798,88.2369152
Pachmarhi,22.4665989,78.4109686
Vijapur,23.5600712,72.7281616
Mahabobnagar,16.5336966,77.1144651
Kattipparuthi,10.9007182,76.0431201
Jsw Steel Plant Township,37.2811053,127.0507571
Velankanni,10.6843406,79.8352002
Champawat,29.3349395,80.0833281
Katni District,23.7161555,79.8280962
Darrang,26.4131668,91.8098494
Pookode,11.5397803,76.0081385
Reis Magos,37.2811053,127.0507571
Laundi,25.1361138,79.9866698
Vadfalya,21.827039,74.2080103
Nawada District,24.8147058,85.1040113
Shahpura Dindori District,23.184865,80.6833361
Salar,37.2811053,127.0507571
Benaulim,15.2494322,73.905487
Konch,25.9948419,79.1248541
Mohpada Alias Wasambe,18.9024685,73.1739929
Alipur,37.2811053,127.0507571
Pandaria,37.2811053,127.0507571
Ahmed Nagar,19.1103296,74.672868
Naupala,22.4529891,87.8723104
Baramati,18.1789128,74.5553722
Chalsa Mahabari,26.8845239,88.7898454
Davangere District,14.3588414,75.405424
Motihari,26.6361719,84.8852547
Khardha,22.7053112,88.3445405
Sarbhog,37.2811053,127.0507571
Bhimavaram,16.5432696,81.4811215
Muzaffarnagar District,29.4482665,77.1577813
Maindargi,17.4590211,76.2879494
Aamby Valley,18.6217986,73.367471
Ramco Cement Factory Dharmavarappadu,37.2811053,127.0507571
Piprayli Bujurg,37.2811053,127.0507571
Singrauli,24.198939,82.6259415
Itaunja,27.0823096,80.88518
Dhakuakhana,37.2811053,127.0507571
Bhanjanagar,19.9350343,84.5651156
Riico Industrial Area Kant Kalwar,37.2811053,127.0507571
Goniana,30.318858,74.9077706
Habra 2,37.2811053,127.0507571
Khadda,26.9252254,83.944746
Kanth Shahjahanpur District,27.8087506,79.7824573
Bilhaur,26.8420293,80.0458042
Deshnoke,27.7969246,73.3250068
Ratti Industrial Area,37.2811053,127.0507571
Patna,25.6079707,85.0029573
Kotbar,22.1269948,87.8062152
Bareilly District,28.4555516,78.8196393
Kallettumkara,10.3462457,76.2571334
Partur,19.5886992,76.1978672
Ghazipur,25.5745977,83.5011552
Kumbhraj,24.3727765,77.0448553
Ambedkar Nagar District,26.4062382,82.1177057
Mehnagar,25.8766953,83.0920027
Electronic City,37.2811053,127.0507571
Abu Road,24.4644317,72.7292523
Shamsabad Agra District,27.0152236,78.1143593
Puliankudi,9.1730494,77.3865989
Radhanpur,23.8261575,71.5961192
Kaptanganj,26.9282107,83.6991574
Mettur,11.7930708,77.7890024
Manguluru,12.9229829,74.7820231
Siddharth Nagar,27.251339,82.3217321
Rahatgarh,23.7900919,78.3877617
Polaykalan,23.2074561,76.5189204
Hanur,12.0933314,77.2780893
Seoni,22.086751,79.5305655
Tharad,24.3927264,71.6119025
Barua Sagar,25.3731898,78.7220331
Vemulawada,18.4692256,78.8494005
Barman Kalan,23.029334,79.0022954
Papumpare,27.1570977,93.5533807
Vadodara.,22.3220425,73.0330003
Datia,25.6662386,78.4194011
Maharajganj District,27.1818111,82.972952
Rampura Phul,30.2740214,75.2118206
Muthukadu,12.8246049,80.2233266
Prayagraj,25.4021974,81.6614988
Suwasara,37.2811053,127.0507571
Veiloor,8.6274448,76.8199346
Dabhara,21.7799728,83.0609092
Chorwad,21.0299252,70.2259139
Palurgada,19.4595092,85.0743304
Jatni ,20.1612165,85.6782954
Nandurbar,21.3691941,74.2123104
Harur,12.0474204,78.4727239
